,datetime,city,state,country,shape,duration (seconds),duration (hours/min),comments,date posted,latitude,longitude
18,1973-10-10 23:00:00,bermuda nas,,,light,20,20 sec.,saw fast moving blip on the radar scope thin went outside and saw it again.,01/11/2002,32.364167,-64.678611
69,1996-10-10 20:00:00,lake macquarie (nsw&#44 australia),,,light,300,5 min,RED LIGHT WITH OTHER RED FLASHING LIGHT&#44 ONE OBJECT,5/24/1999,-33.093373,151.588982
102,2000-10-10 03:45:00,carnival cruise ship (paradise) (caribbean),,,flash,1200,20 mins.,Motionless eratic flashing light.,12/09/2000,0,0.0
126,2002-10-10 22:00:00,bahamas,,,egg,0,,we are sitting outside and commenting on all the air traffic tonight. over to the east we were watching what we thought a plane but nev,10/15/2002,25.03428,-77.39628
136,2003-10-10 23:00:00,bickerton (near wetherby) (uk/england),,,unknown,2700,45minutes,two bright&#44 but fuzzy lights going in a hovering circle about 200 yards of the ground&#44 with a grey cloud above them,10/15/2003,53.070884,-2.736506
218,2009-10-10 00:00:00,greenland,,,rectangle,0,,Found this on google maps 70.5&#44 -40.3 Look it up&#44 this can&#39t be an error or an artifact on the photo it is 50+ miles long.,12/12/2009,0,0.0
549,1970-10-01 00:00:00,viet nam,,,light,600,5/10 minutes,U.F.O. in Vietnam    1970,06/04/2004,14.058324,108.277199
556,1970-10-01 23:00:00,indian ocean (usn vessel),,,light,240,3-4 minutes,Bright object seemingly appeared out of nowhere in the Indian Ocean&#44 miles from any land.,07/08/2004,-33.137551,81.826172
665,1995-10-01 21:00:00,uk/england,,,light,0,,I was stargazing when I saw a plane fly overhead towards the Irish sea. Flying beside the plane was a ball of light. The light circled,8/28/2002,52.355518,-1.17432
706,1998-10-01 21:00:00,wadley (5 hrs from san luis opsipo) (mexico),,,triangle,900,15 min each,While on a 5-day camping trip in Mexico&#44 two campers had a close encounter on TWO occasions.,11/19/1998,0,0.0
752,2002-10-01 00:30:00,hong kong,,,formation,1800,30 minutes,Sighting in Hong Kong SAR,10/15/2002,22.396428,114.109497
867,2006-10-01 06:00:00,iraq,,,triangle,15,15 seconds,I SAW THE SAME THING  IN 2006,07/05/2008,33.223191,43.679291
1068,1967-10-12 01:45:00,viet nam (jungles of),,,other,3600,1 hour,Lights in the Nam,12/03/2004,14.058324,108.277199
1110,2000-10-12 11:09:00,la serena (vi&ntilde;a del mar) (chile),,,formation,7620,127 m,I dont Write English But I Have a 3 Videos Bery high resolution My email victorvialt@123click.cl Chile Suth America,4/25/2002,-29.906301,-71.250204
1122,2001-10-12 12:34:00,dublin (republic of ireland),,,light,754,12:34,it was just threefashhes of ight in the sky,11/20/2001,0,0.0
1125,2001-10-12 19:40:00,sainte-suzanne (near switzerland) (france),,,other,2,2 secondes,The craft was too dark&#44 but behind i have seen a long and large light blue flame&#44 and all disapeared after a zigzag of 2 sec. The direc,10/12/2001,48.097456,-0.349277
1136,2002-10-12 19:13:00,australia (rural),,,other,420,7 minutes,This was a very close encounter with  unidentifiable flying phenomenon.,08/12/2008,-25.274398,133.775136
1181,2006-10-12 14:00:00,cotswold (eastleich) (uk/england),,,oval,0,,DISC  CRAFT OVER COTSWOLDS UK,12/14/2006,35.18487,-80.79071
1394,2003-10-13 12:30:00,guasave sinaloa,,,changing,480,8 minutes,Change form getting energy,11/26/2003,25.566699,-108.467305
1612,1998-10-14 01:45:00,south eastern coast (republic of ireland),,,chevron,300,5 min,Was at a hotel on the southern coast of Ireland&#44 just enjoying the night air&#44 when a light appeared about 30 degrees off the horizon&#44,11/01/1998,22.564254,114.229432
1718,2007-10-14 04:15:00,barquisimeto (venezuela),,,circle,120,at least 2 minutes,Round shaped ship with lights around&#44 static movement and then fly away,11/28/2007,10.063611,-69.334722
1760,2010-10-14 19:28:00,shelbyville,,,egg,300,5 minutes,4 objects one moving others still and started moving when it was in their area. erratic patern.,11/21/2010,0,0.0
1763,2010-10-14 21:30:00,tehran (iran),,,triangle,3600,1 hour,i like to share My Hd film,11/21/2010,35.696111,51.423056
1790,2011-10-14 22:20:00,san mateo,,,light,1200,20 minutes,8 to 12 orange lights flying slowly at sf bay.,10/19/2011,0,0.0
1839,1947-10-15 21:00:00,palmira,,,circle,3600,1 hour,After a concert given in the small town of Palmira&#44 Colombia&#44  a group of people accompanied the singer to the town square to talk with,04/02/1999,0,0.0
1877,1968-10-15 21:30:00,pacific ocean (1500mi.sw of u.s.mainland),,,circle,30,30 sec.,Bright&#44 white soundless orb with no trajecory nor trail of flames,09/12/2003,-8.783195,-124.508523
1896,1972-10-15 17:00:00,long bink (viet nam),,,other,45,30-45 seconds,Camouflaged UFO flew low and slow over military post,9/15/2005,0,0.0
1903,1973-10-15 23:00:00,germany (czech border),,,flash,60,1 minute,It&#39s not the only time &#33&#33,08/01/2003,51.165691,10.451526
2028,1990-10-15 22:30:00,saudi arabia,,,triangle,20,15 -20 seconds,October 1990 - Saudi Arabia - large dark triangular object - 3 white lights -  20 seconds - no sound - no stars behind object,10/20/2005,23.885942,45.079162
2039,1993-10-15 04:00:00,dublin (republic of ireland),,,,45,45 seconds,i am a professional person&#44 45yrs of age now.have 8&quot; reflector telescope for star gazing. a good knoledge of science etc&#44 very level he,09/09/2003,0,0.0
2054,1994-10-15 22:00:00,bry sur marne  (near paris) (france),,,,120,some minuts,Two red lights in the sky,10/28/2002,48.834913,2.523649
2069,1995-10-15 23:00:00,split (in former yugoslavia),,,fireball,15,15 seconds,I was standing on the shore of the Adriatic Sea looking towrds Italy&#44 seen object go frm left to right&#44 approx  altitiude1000ft,02/01/2007,43.508132,16.440193
2151,2000-10-15 01:00:00,los americas (laguna park 1 hotel) (tenerife),,,circle,45,45 seconds,the UFO traveled horizontaly above us&#44for approx 45 seconds before shooting upwards into the sky and dissapearing.,12/09/2003,4.52572,-75.6976
2371,2009-10-15 22:30:00,pampatar-margarita island (venezuela),,,triangle,4,3-4 seconds,Triangular UFO over Margarita Island&#44 Venezuela. October 2009,2/14/2010,10.999444,-63.794444
2424,2012-10-15 09:00:00,angeles city anunas brgy (near frmr clark afb) (philippines),,,disk,90,90 seconds,Bright White colored&#44 Saucer shaped UFO&#44 camouflaged to blend with the clouds.,8/30/2013,0,0.0
2488,2000-10-16 19:00:00,tulcea (danube delta) (romania),,,unknown,0,undefinite,Danube Delta - Romania - A group of five flashing lights hovering in the air,12/02/2000,45.171617,28.791444
2605,2010-10-16 13:00:00,anonymous,,,,0,until now,Just want to talk to someone about what I&#39ve seen &amp; experienced,01/05/2011,-16.365181,-46.89572
2626,2011-10-16 19:30:00,gaia,,,circle,600,10 miutes,Blue light ufo making strange movements,10/25/2011,13.075418,-59.493768
2741,2002-10-17 22:30:00,vrsac (yugoslavia),,,diamond,7,7 sec.,We saw a huge space craft from some other planet.,10/28/2002,45.116667,21.3
2748,2003-10-17 16:54:00,cape town (south africa),,,sphere,30,30 sec,Round sphere speeding along a horizontal path,10/31/2003,-33.924868,18.424055
2927,1998-10-18 23:35:00,dublin (blanchardstown)  (republic of ireland),,,light,1800,30mins,A moving star in the sky&#44 jerking&#44 zig-zaging&#44 etc...,11/01/1998,0,0.0
2998,2004-10-18 20:00:00,uk/england,,,cylinder,60,1 min,cigar shape object that hoverd above a house then at speed whent in to the sky,12/03/2004,52.355518,-1.17432
3011,2006-10-18 19:00:00,san carlos,,,triangle,2,2sec,Triangle UFO in San Carlos Mexico Oct 18&#4406,10/30/2006,0,0.0
3042,2009-10-18 19:45:00,johannesburg (south africa),,,circle,35,35 seconds,2 very faint&#44 circular&#44 transparent&#44 moving halos seen in Johannesburg&#44 South Africa on a clear evening.,12/12/2009,0,0.0
3044,2009-10-18 20:45:00,senekal (south africa),,,light,180,3min,Pulsating&#44 bright light with light waves,12/12/2009,-28.316667,27.6
3045,2009-10-18 22:00:00,bloemfontein (free state),,,circle,60,1 minute or so,I reside in the USA. My brother called me from South Africa trying to find out how he can report what he saw in the sky. It was a a cle,12/12/2009,-29.1,26.216667
3047,2009-10-18 22:00:00,mossel bay (south africa),,,circle,600,10 min or more,These crafts move from direction Cape town...Mossel bay...George etc.All reported by my dauther to observatory in Cape town.Ref,12/12/2009,-34.183333,22.133333
3161,2001-10-19 00:30:00,wicklow (republic of ireland),,,egg,180,3 minutes,HOVERING LIGHTS OUTSIDE OUR WINDOW,11/20/2001,52.980821,-6.044589
3163,2001-10-19 18:30:00,anguilla,,,light,60,1minute,Well a lite very far mouving up and down slitghly mouving and then its gone lite went of thanks for beliving guys not many peaple do ch,11/20/2001,0,0.0
3232,2008-10-19 06:40:00,puntarenas (costa rica),,,sphere,60,1 minute,Small white ball  2&quot; diameter hovering in the ocean with 4&quot; diameter blades.,10/31/2008,9.977844,-84.829421
3290,2012-10-19 02:30:00,gimhae (kimhae) (south korea),,,disk,5400,1-1.5 hours,The Night sky in Gimhae on the 10/19/12,10/30/2012,35.228545,128.889352
3353,1962-10-20 05:30:00,ramey airforce base (sac) (puerto rico),,,oval,2700,45 minutes,Strange cloud seen at Airforce Base near the Carribean Sea,06/03/2011,38.738308,-93.573028
3443,2001-10-20 13:00:00,riyadh/ saudi arabia,,,circle,0,mid night,i have seen a 3 flying objects at the mid night while i was waching the moon. there description or the descreption of the ufo&#39s that i,12/05/2001,24.711667,46.724167
3565,2008-10-20 02:00:00,indian ocean,,,unknown,300,5 minuts,at night in the middle of the ocean ( a light from unknown source inspecting my ship) from 50-100 meter,8/27/2009,-33.137551,81.826172
3578,2009-10-20 00:15:00,kiimberley (south africa),,,unknown,10,10 seconds,no lights no sound only portion of ojectt seen,12/12/2009,-28.741944,24.771944
3620,2011-10-20 18:30:00,cali,,,triangle,1500,25 minutes,Triangular object seen by multiple witnesses in cali&#44 Colombia,01/12/2012,3.420556,-76.522222
3683,1966-10-21 02:00:00,goose air base (labrador) (canada),,,sphere,240,4 minutes,Light followed a landing aircraft at Goose AB&#44 Labrador 1966,04/03/2011,32.346612,-86.167221
3694,1989-10-21 23:45:00,dublin (republic of ireland),,,triangle,1500,25mins[at least],i was taking a shortcut through the secondary school and i saw a very bright light&#44i thought it was a really bright star.as i got close,06/06/2000,0,0.0
3932,2000-10-02 20:30:00,mitchelstown (republic of ireland),,,unknown,300,5 minutes,I saw one object moving erracticly across the sky at vairous different speed&#39s. There was no sound accompanying the object. it was also,12/02/2000,52.266213,-8.269886
4011,2008-10-02 20:00:00,neacroft (christchurch) bournemouth (uk/england),,,unknown,300,5 minutes,Cluster of flashing lights spotted,10/31/2008,0,0.0
4050,2011-10-02 21:50:00,barahona (dominican republic),,,other,15,15 sec,Lights Shaped Like Boomerang,10/10/2011,18.2,-71.1
4121,2000-10-22 10:30:00,peru,,,disk,0,,Video and digital photo show a disk type object about 100 feet diameter.,8/28/2002,0,0.0
4336,1998-10-23 18:37:00,hollymount (county mayo) (republic of ireland),,,sphere,90,1min30seconds,There were 3 witnesses to a glowing ball of light in the west of Ireland It was metalic because the sun which was setting reflected off,10/02/1999,0,0.0
4340,1999-10-23 02:00:00,johannesburg (south africa),,,other,6,6 seconds,What can only be described as a comet with multiple light sources (at least three - one large at front and one to the left of the front,11/02/1999,0,0.0
4353,2000-10-23 10:00:00,cuba (se coast of&#44 board sea princess),,,other,0,?,Didn&#39t see it while aboard ship.  When had film processed an object appeared that was not noticed.  I am attaching it.  Nobody on the s,4/28/2001,0,0.0
4363,2001-10-23 21:30:00,durban (south africa),,,triangle,1,1 second,lightning craft,11/20/2001,-29.85868,31.02184
4398,2005-10-23 21:00:00,cyprus (mediterranean sea),,,formation,60,60 seconds,twenty orange coloured oblong shapes arranging themselves into a formation&#44 silently.,11/03/2005,35.126413,33.429859
4412,2006-10-23 22:30:00,ponce (ponce) (puerto rico),,,triangle,1200,20 minutes,I seen a triangle in the sky with blinking lights.  ((NUFORC Note:  We wonder whether this is a serious report.  PD)),12/07/2006,0,0.0
4577,1995-10-24 02:00:00,tyrrhenian sea,,,sphere,30,30sec,blue colour sphere was obsereved from containership&#44dia abt 4mtrs&#44from dist of abt 8mtr.Moved after twds Italian coast.,7/16/2006,40.076986,11.343106
4816,1991-10-25 00:05:00,prague (czech republic),,,sphere,10,10 seconds,Yellow sphere with a red blinking sphere on the top&#44 flew straightly in very high speed without any sound,12/03/2004,0,0.0
4822,1995-10-25 20:45:00,sion mills (northern ireland),,,fireball,45,3/4 seconds,Two suns flying over our heads in Co. Tyrone&#44 Northern IrelandOctober 1995,8/14/2007,54.78535,-7.47427
4872,2004-10-25 04:21:00,m. fokani/hims (syria),,,sphere,120,2 min,Cold blue light,11/03/2005,34.809422,37.094261
4920,2008-10-25 19:30:00,san jose del cabo (baja&#44 mexico),,,fireball,900,15 minutes,Orange fiery shapes at just above sea level  travelling in southern direction toward Cabo San Lucas,06/09/2009,23.063656,-109.702438
4996,2013-10-25 18:25:00,al warqaa 1 (u.a.r.),,,light,600,5-10 minutes,Cloud containing yellow&#44 purple and red lights for 5 minutes.  Lights remained contained and cloud disappeared after 5-10 minutes.,11/11/2013,25.187459,55.405636
4999,2013-10-25 19:50:00,padang (west sumatra) (indonesia),,,light,7200,2 hours,Thursday 25 Oct 2013 at 1950pm cyrcle with lights around flying and stand still for 2 hrs in the sky of Padang West Sumatra,11/11/2013,-0.95,100.353056
5022,1994-10-26 02:30:00,brixham.devon (at sea.fishing) (uk/england),,,sphere,1200,20 minets,the object moved at speed from one place to enother&#44then stopt and started follwing  are boat then vanishd.,11/04/2002,50.39514,-3.513924
5153,2008-10-26 20:10:00,buenos aires (almagro pale&#44 belgrano) (brazil),,,disk,240,4 minutos,Un misterioso Ovni Lenticular de aspecto Marron Oscuro,10/31/2008,-34.603723,-58.381593
5265,2001-10-27 23:00:00,durban (south africa),,,disk,2,few seconds,comman disk,11/20/2001,-29.85868,31.02184
5327,2008-10-27 08:00:00,lahore (punjab) (pakistan),,,triangle,300,5 minutes,Strange objects over lahore&#44 Pakistan.,01/10/2009,31.554606,74.357158
5457,2000-10-28 20:30:00,negombo (sri lanka),,,fireball,0,30,Bright red lights&#44 almost like a flare,12/09/2000,7.189464,79.858734
5718,2002-10-29 22:37:00,philippines,,,changing,180,3 mins,ufo appeared at the sky while we&#39re eating,02/01/2007,12.879721,121.774017
5785,2008-10-29 19:30:00,west riffa (kingdom of bahrain),,,triangle,0,,Weird Object moving slowly to West and then disappeared in nano second,10/31/2008,26.13,50.555
5829,2010-10-29 21:00:00,indian ocean,,,fireball,5400,1.5 hrs,During the routine bridge watch at sea&#44 on the 29th Oct 2010 2200 UTC in position 03 56S 074 59E&#44 I happened to observe a bright reddis,11/21/2010,-33.137551,81.826172
5833,2011-10-29 02:30:00,kuwait city (near) (kuwait),,,circle,600,~10 minute,Three bright lights lined up on Orions Belt; darted across sky to form triangle,07/03/2013,29.369722,47.978333
5978,2005-10-30 04:31:00,l&#180;arbo&ccedil; (catalunya) (spain),,,disk,2220,37 min,OBJETO TIPO DISCO VISTO EN DEP&Ograve;SITO DE AGUA &#44 ENCIMA ANTENA DE R&Agrave;DIO L&#180;ARBO&Ccedil; 106.8 FM MET&Agrave;LICO. ESTATICO POSADO ENCIMA DEL CUERPO D,11/03/2005,41.265988,1.602034
6099,2012-10-30 22:45:00,uk/england,,,light,3600,1 hour,Fast moving light rotating in a circle.  ((NUFORC Note:  Possible advertising light??  PD)),11/04/2012,52.355518,-1.17432
6369,2005-10-31 19:30:00,australia,,,disk,180,3 minutes,Chromed disc shapped object moving irractically&#44 dissapearing/reapearing&#44 very fast to floating at times. Clear skies at dusk.,11/08/2005,-25.274398,133.775136
6444,2009-10-31 12:00:00,tunisia (in-flight; over ocean),,,formation,420,7 min,Bright triangular formations in the sky,07/06/2011,33.886917,9.537499
6449,2009-10-31 19:50:00,derry (northern ireland),,,changing,120,1-2 minutes,Several people witness a strange light that changed shape&#44 direction and speed over Derry.,12/12/2009,0,0.0
6494,2011-10-31 20:30:00,dehradun (uttar pradesh) (india),,,flash,2,few seconds,It was a conical flare at very high speed( 50M?)&#44 no sound and it was there for few seconds.,12/12/2011,30.316495,78.032192
6698,2010-10-03 19:50:00,johannesburg (south africa),,,formation,480,8 minutes,3 red lights form triangular shape - just hovering in the air.,11/21/2010,0,0.0
6807,2001-10-04 12:30:00,port of spain (trinidad),,,sphere,40,40 seconds,Round&#44 white sphere&#44 moving at incredible speed&#44 stopping and moving at right angles.,11/20/2001,10.666667,-61.516667
6922,2011-10-04 20:30:00,pohang (south korea),,,light,2700,45 min,Over 70 soft lights seen hovering over Pohang&#44 South Korea.,10/19/2011,36.019018,129.343481
7004,1999-10-05 10:57:00,tuaran (sabah) (malaysia),,,fireball,240,4 minutes,2 glowing fireball (white blue) crossing from west coast going to Mt. Kinabalu direction. Elevation more than ten thousands feet approx,10/19/1999,6.168561,116.234834
7155,2012-10-05 19:20:00,chennai (tamil nadu) (india),,,circle,120,2 minutes,A bigger bright light moving slowly&#44 in night sky for aprox. 2 min was seen&#44 no sound heard and suddenly the bright light started to di,10/30/2012,13.052414,80.250825
7189,2013-10-05 20:14:00,seoul (south korea),,,oval,1200,20 minutes,12 UFOs spotted hovering North of Seoul before speeding off North into restricted airspace.,10/14/2013,37.566535,126.977969
7216,1986-10-06 00:20:00,janico (santiago) (dominican republic),,,circle,120,2 mins,The craft stood directly above the center of the town&#44 the most vivid assortment of lights.  In the blink of an eye&#44 it dissappeared&#44 l,9/13/2002,19.325936,-70.816455
7217,1992-10-06 13:00:00,prishtina,,,circle,20,20 seconds,Orange Circle,2/14/2006,42.657798,21.153346
7228,1998-10-06 23:00:00,dublin (republic of ireland),,,triangle,600,10 mins,Three star like objects.,02/08/2005,0,0.0
7241,2000-10-06 22:00:00,uk/england,,,triangle,60,about 1 minute,RED TRIANGLES&#44 WHITE SPOTS--------VERY FAST&#33&#33&#33&#33&#33,07/05/2005,52.355518,-1.17432
7269,2004-10-06 00:00:00,japan,,,other,120,2 minutes,LARGE&#44 WHITE UNMOVING CRAFT - POSSIBLY DAMAGED,10/27/2004,36.204824,138.252924
7399,2012-10-06 21:11:00,johannesburg (kempton park) (republic of south africa),,,circle,600,10 minutes,RSA&#44 silent&#44 bright orange&#44 moving slowly&#44 one did two 90&#176; turns&#44 + 4 sets of 3&#44 photos came out very well.,10/30/2012,0,0.0
7498,2004-10-07 12:45:00,malmesbury,,,oval,60,1 min,Malmesbury Aliens in Somerfield Area,10/27/2004,51.586357,-2.102834
7504,2005-10-07 09:00:00,kirby bellars (leicstershire) (uk/england),,,other,20,20 seconds,star shape low flying fast,10/11/2005,52.755637,-0.947553
7625,1993-10-08 19:00:00,gampola (sri lanka),,,light,3600,1 hour,We saw one red light and five strange creatures on the mountain top.,11/19/2012,7.126777,80.564677
7659,2001-10-08 21:00:00,heredia (costa rica),,,other,6,6 seconds,I saw an object shaped like a butterfly&#44 with flapping wings or layers&#44 coming down and sharply made a u-turn upwards. It was just abov,11/20/2001,10.473523,-84.016742
7690,2005-10-08 13:00:00,sarajevo (bosnia),,,disk,3040,30 40 seconds, ((NUFORC Note:  We are awaiting additional information.  PD))  http://www.sartelcom.net/ET/ufo_nlo/ufo_nlo_sarajevo.html,10/11/2005,43.856259,18.413076
7835,2013-10-08 22:00:00,newark,,,changing,600,10 minutes,Big white orange changing size fire ball.,10/14/2013,0,0.0
7841,1988-10-09 21:00:00,bridgend,,,disk,900,15 mins,The experience was not frightening&#44 it was a beautiful craft that we saw and if it were to come back then it would be great&#33,2/18/2001,51.504286,-3.576945
7845,1992-10-09 19:49:00,eastern usa,,,other,41,41 seconds,Fireball meteor impacts a car with license plate carrying a message just before NASA begins HRMS project..,12/20/2012,31.952856,-102.171694
8038,2013-10-09 05:35:00,oltenita (calarasi) (romania),,,circle,7200,2 hours,Light on sky.,10/14/2013,44.086667,26.636667
8056,2013-10-09 21:15:00,gillingham,,,diamond,900,15 minutes,Was me and my son.I was closing bedroom curtain nd like usually like to look out at sky for stars I then  saw a few stars twinkling in,10/14/2013,51.386322,0.551438
8057,2013-10-09 21:15:00,gillingham,,,diamond,900,15 minutes,Was me and my son?I was closing bios bedroom curtain nd like unusually like to look out at sky for stars I then  saw a few stars twinkl,10/14/2013,51.386322,0.551438
8069,1973-01-10 02:30:00,barrigada (marianas islands/guam),,,cigar,300,5 minutes,Cigar-shaped metalic craft with rotating redish and blue-green lights sighted during early morning hours while viewing stars with a new,11/19/1998,0,0.0
8144,2003-01-10 22:54:00,johannesburg (south africa),,,light,10800,3 hours,ufo&#39s travel in formation of orion for three hours disguising themselves as stars,03/04/2003,0,0.0
8160,2004-01-10 23:00:00,guatemala,,,light,10800,3 hours,in guatemala city the whole city saww it and lasted 3 hours the news broadcast got it on tape is a good tape it proofs it there were fl,1/17/2004,15.783471,-90.230759
8242,2010-01-10 21:05:00,uk/england,,,circle,900,15min,This craft new what it was doing,7/17/2011,52.355518,-1.17432
8296,2014-01-10 22:43:00,johannesburg (south africa),,,circle,600,10 minutes,5 bright orange lights spotted moving rapidly accross the nightsky.,1/16/2014,0,0.0
8324,1995-11-10 23:00:00,st. thomas (charlotte amalie) (u. s. virgin islands),,,circle,0,unknown,A LARGE MOON SIZE ILUMINATED GLOBE,05/12/2010,0,0.0
8574,1967-11-11 20:00:00,danang (viet nam),,,light,60,1 minute,Bright object travelling across the sky made a sudden 90 degree turn.,4/16/2005,16.054407,108.202167
8588,1989-11-11 05:30:00,jamaica,,,cylinder,120,a few minutes,A cylinder looking object&#44 which travelled at great speed with fire reddish&#44 blueish flames,4/22/2003,0,0.0
8590,1989-11-11 20:00:00,dun laoghaire (republic of ireland),,,disk,60,1 minute,It was a saucer above with a steel finish and flashing lights that changed colour&#44 it made no sound,01/11/2002,53.29279,-6.141937
8592,1993-11-11 23:00:00,philipsburg (st. maarten) (dutch antilles),,,circle,20,20 secs,2 circular objects flying formation after brief positioning next to each  dark blackout night no lights 1 witness caribbean,3/17/2004,0,0.0
8605,1998-11-11 01:23:00,st. john&#39s (antigua),,,flash,20,15-20 secs,Appeared at first to be just another meteor burning on entry&#44 but it stopped moving and started a random controlled flashing.,8/30/1999,0,0.0
8640,2002-11-11 03:24:00,paris airport (near open field) (france),,,disk,72,01:12,movin left&#44 then right&#44 up&#44&#44 then down&#44&#44 slowly landing big&#44bright as day one other man on plane saw it too with out the window he just,11/16/2002,35.296832,-93.685778
8670,2004-11-11 19:40:00,uk/england,,,circle,10,10 secs,the 2 brightest objects I have ever seen,12/03/2004,52.355518,-1.17432
8677,2005-11-11 17:00:00,philippines,,,unknown,0,,only 2 layers of blur lights around &#44 forming a circle. It seems to be huge but invisible &#44 only th elights around it I saw. It is stat,10/30/2006,12.879721,121.774017
8803,2013-11-11 21:52:00,cochabamba (bolivia),,,diamond,1800,30 minutes,Blue leds.,11/20/2013,-17.383333,-66.166667
8817,1967-11-01 21:00:00,vaucouleurs (lorfrance,,,light,120,2 min.,Slow moving across sky&#44 stopped and after about a half minute it shot directly verticle in elevation instantanously.,12/19/2003,48.601914,5.66551
8832,1973-11-01 23:00:00,bentwaters afb (near woodbridge) (uk/england),,,fireball,300,5 mins,Bentwaters 1973,4/16/2005,0,0.0
8839,1975-11-01 06:00:00,australian outback,,,unknown,360,six minutes,Outback UFO appeared to be observing us&#44 while we observed it.,8/24/2004,37.715349,-97.409008
8842,1976-11-01 16:00:00,fujisawa (kanagawa prefecture)(japan),,,other,30,30 seconds,A big&#44 black&#44 round&#44 &amp; spinning UFO with a WAVY EDGE slowly moving across the sky in a straight line in Japan.,04/11/2014,0,0.0
8865,1985-11-01 18:00:00,east london (south africa),,,sphere,5,5 seconds,Flourescent Orbs,5/29/2012,51.508515,-0.125487
8917,1997-11-01 22:00:00,aguas claras (costa rica),,,disk,120,11/2 min,mercury colored saucer  comes down leaving a trail of neon green smoke that lite up the farm like if it was day.,7/16/2006,0,0.0
8933,1998-11-01 20:00:00,tinaquillo (venezuela),,,diamond,10,ten seconds,The star that caught my eyes in moonless night&#33.,01/11/2002,9.916667,-68.3
8975,2001-01-11 09:06:00,kilkenny (republic of ireland),,,sphere,300,5 mins,3 balls of light seen at Kilkenny ireland.,2/18/2001,52.654145,-7.244788
9099,2004-11-01 18:20:00,ciudad quesada (costa rica),,,oval,2,seconds,An U.F.O appears in Costa Rica in a beautiful and clear afternoon.,12/07/2006,10.327078,-84.435671
9358,2013-11-01 14:45:00,qutong gorge (yangtze river) (china),,,circle,2,seconds,China&#44  Circular.  10-20 seconds  Along Yangtze River at Qutong Gorge,11/20/2013,0,0.0
9383,2013-01-11 21:00:00,australia,,,disk,30,30 seconds,UFO in Western Australian skies.,5/15/2013,-25.274398,133.775136
9445,1999-11-12 23:30:00,magnetic island (qld&#44 australia),,,light,600,10 mins,watching storm&#44thought a boat let out a flare&#44a red hovering light but the flare zig zagged then flew on angle&#44 then flew straight behi,4/15/2000,-19.135865,146.842356
9492,2004-11-12 19:05:00,seoul,,,unknown,60,1 minute,A light flight to norh in straight and zigzag. Then disappeared.,12/03/2004,37.566535,126.977969
9527,2007-11-12 21:00:00,east london (south africa),,,oval,60,=- 1 minute,While having a ciggy&#44 I saw a UFO move quietly over my home.....was about 5m above the tree-tops......,11/28/2007,51.508515,-0.125487
9579,2010-11-12 19:15:00,pristina (kosovo),,,fireball,23,2&#443 seconds,round ball of fire travelling very fast what looked like a large orange fireball,11/21/2010,42.657798,21.153346
9620,2012-11-12 21:00:00,chennai (madras) (india),,,circle,60,1 minutes,((No information from witness.)),11/19/2012,13.052414,80.250825
9665,1999-11-13 15:15:00,estcourt (south africa),,,rectangle,10,5-10seconds,The day was beautiful not a cloud in the sky&#44 I was playing in a golf tournament and at about 15:15h I happened to look up into the sky,01/07/2000,0,0.0
9694,2003-11-13 01:30:00,aruba (caribbean),,,triangle,12000,3 hours and 20 minutes,Strange lights off the coastline of Aruba,1/17/2004,12.52111,-69.968338
9708,2003-11-13 21:30:00,atlantic ocean (virgin islands),,,rectangle,60,1 minute,A bright Orange Object appeared to be observing our cruise ship in the southern atlantic ocean,11/26/2003,-14.599413,-28.673147
9797,2010-11-13 21:30:00,australia,,,changing,600,10 min,Strange group of moving bright objects observed by family and captured footage in AU Nov 10&#39 ((NUFORC Note:  Photos ambiguous.  PD)),11/21/2010,-25.274398,133.775136
9810,2012-11-13 00:30:00,amsterdam (north part) (netherlands),,,oval,300,5 minutes,Amsterdam globe 5 minutes orange oval (sphere like),11/19/2012,0,0.0
10022,2008-11-14 19:30:00,aland islands (forty miles south of) (finland),,,fireball,10,ten seconds,En route from London Stansted Airport&#44 UK to Helsinki Intl&#44 Finland with Czech Airlines&#44 Boeing 737.Approximately forty miles south,3/19/2009,60.178525,19.91561
10027,2008-11-14 21:00:00,manchester (glossup) uk/england,,,circle,7200,2 hours,8 round red stationary objects that shone even through the clouds.,01/10/2009,53.479324,-2.248485
10110,2013-11-14 20:05:00,gordons bay (cape town)(south africa),,,light,25,25 seconds,I first thought this might have been a airplane&#44 but when it started dropping I knew it wasn&#39t unless it was on fire(it left no trail o,11/20/2013,-34.151467,18.872973
10164,1979-11-15 21:30:00,finland,,,changing,10,10 seconds,Diamond or kite shaped cluster of high altitude red lights that changed to horseshoe pattern and zipped to the horizon.,05/11/2005,61.92411,25.748151
10189,1989-11-15 10:00:00,iver heath (xbridge.nwl ondon (thames) (uk/england),,,other,3600,1hr1/2,it looks like smoke no thats a ufo mate.1989.,07/05/2008,51.550908,-0.521463
10202,1990-11-15 23:30:00,jubail (saudi arabia),,,oval,120,2min,Pre-sighting of March 1996 Blue Oval near Jubail Saudi Arabia,10/31/2003,27,49.666667
10254,1998-11-15 19:50:00,newborough (vic&#44 australia),,,oval,60,half and hour,Hovering over mountain about 10kms away from our house. Started as 2 Big glowing balls of Red the changed to 5 little red glowing balls,08/10/1999,53.164868,-4.359065
10315,2002-11-15 00:45:00,swadlincote derby&#44 uk (near),,,flash,180,3 mins,SIGHTING NEAR SWADLINCOTE DERBYSHIRE,11/20/2002,52.771318,-1.554997
10367,2004-11-15 19:00:00,mayag&uuml;ez,,,light,180,3 minutes,I live in the country part of Puerto Rico and I know something weird is happening.One night&#44 I was outside&#44 sweeping the front porc,12/03/2004,18.201346,-67.145152
10432,2007-11-15 21:00:00,cork (republic of ireland),,,circle,240,3 -4 mins,large circular object that was spinning while moving forward 4 lights around edge 2 underneat,11/28/2007,51.896892,-8.486316
10586,1998-11-16 22:30:00,sheffield city (just outside)(south yorkshire) (uk/england),,,egg,600,10 mins est.,Strange sighting near Sheffield&#44 UK.,4/28/2001,53.381129,-1.470085
10805,2003-11-16 06:30:00,santa bonifacio (corsica),,,disk,600,10 minutes approx,Moon  colored disk objects sighted from the second floor of Le Royal Hotel at 6:30 AM Nov. 16&#44 2003,12/19/2003,41.481793,9.06108
10811,2003-11-16 16:15:00,uk/england,,,oval,2700,45 minutes,UFO filmed over Leyland&#44 Lancashire&#44 U. K.,11/26/2003,52.355518,-1.17432
10824,2004-11-16 16:45:00,pacific ocean/x-43a launch,,,circle,240,3-4 minutes,Black circular craft seen on NASA live streaming broadcast,12/03/2004,0,0.0
10827,2004-11-16 17:44:00,yangon (rangoon) (myanmar),,,light,60,60 seconds,7 sequence pics of UFO taken in Burma(Myanmar),07/06/2010,16.8,96.15
10869,2008-11-16 10:48:00,nasa tv broadcast,,,flash,15,15 seconds,NASA TV Space Shuttle Docking&#44 blinking white light moved across camera image at 10:48 AM Pacific Time and then disappeared,01/10/2009,0,0.0
10931,2012-11-16 11:40:00,santo domingo (dominican republic),,,flash,40,40 segundos,No hablo muy bien el ingles&#44 pero frente de mi casa cuando estaba guardando el carro&#44 noto esa luz diferente a las dem&aacute;s en el cielo y,11/19/2012,0,0.0
10949,2012-11-16 22:30:00,philippines,,,fireball,90,90 seconds,3 separate sightings of orange light in a week.,11/19/2012,12.879721,121.774017
11087,2002-11-17 20:00:00,paphos,,,other,300,5 minuites,conversation without a word,11/20/2002,34.772013,32.429737
11238,2012-11-17 21:00:00,johannesburg (south africa),,,light,120,2 minutes,2 bright orange lights moving steadely&#44 no sounds&#44 medium hight,11/19/2012,0,0.0
11260,2013-11-17 20:15:00,menstrie (near stirling)(uk/scotland),,,light,2,2 seconds,Green light.,11/20/2013,56.151116,-3.854674
11351,2002-11-18 04:30:00,in earth orbit,,,circle,40,30-40 seconds,An erratically moving object was observed during the NASA Channel&#39s live broadcast of the Leonid meteor shower 11/18/2001.,5/24/2005,0,0.0
11399,2006-11-18 10:30:00,hermosillo/obregon city (between) (sonora) (mexico),,,disk,3,3 seconds,Disc-Shaped Object seen on Hermosillo-Obregon City&#44 Sonora&#44 Mexico Highway,12/07/2006,29.097274,-110.984339
11589,2002-11-19 05:33:00,luxembourg,,,light,1200,20+min.,stationary bright light in the night sky,12/23/2002,49.815273,6.129583
11630,2004-11-19 19:30:00,uk/england,,,cross,60,1 min,flying cone in the sky,12/03/2004,52.355518,-1.17432
11692,2009-11-19 21:40:00,cape town (south africa),,,flash,2400,40 minutes,Two unidentifiable flashing light&#44 relatively stationary&#44 observed in sky at approximately 21:40&#44 and stayed there for 40 mins.,12/12/2009,-33.924868,18.424055
11703,2010-11-19 20:30:00,randburg (johannesburg) (south africa),,,unknown,120,2 min,occurred round-about 20:30 to 22:00 i looked into the clear sky &#44 and notice a large single bright light heading towards me (not for me,11/21/2010,-26.093611,28.006389
11792,1967-01-01 01:00:00,cam rahn bay (viet nam),,,cigar,30,30sec+,Saw UFO when in Viet Nam..no doubt about it.,4/27/2007,11.893334,109.170167
11799,1968-01-01 22:00:00,da nang (viet nam),,,unknown,600,10 min,Silent&#44 slow moving light that eventually took off very fast.,9/17/2000,16.054407,108.202167
11807,1970-01-01 19:00:00,panama,,,light,1800,30 minutes,possible abduction?,12/23/2002,0,0.0
11809,1971-01-01 14:00:00,hong kong,,,oval,420,7 minutes,A bright greenish type of  bubble of light landed on the merry-go-round in our primary school playground.,07/11/2000,22.396428,114.109497
11818,1975-01-01 11:45:00,singapore,,,disk,0,,Only one direction at a speed of est: 50 km.,03/04/2003,1.352083,103.819836
11835,1979-01-01 03:00:00,silvertown (american name),,,other,300,5 minutes?,Visitation Experience in Korea and other events,7/26/2002,0,0.0
11857,1990-01-01 00:15:00,sao paulo (brasil),,,disk,300,5 minutes,Large&#44 multicolored&#44 glowing craft hovered over neighborhood in Sao Paulo&#44 Brasil,4/27/2007,-23.55052,-46.633309
11861,1991-01-01 20:00:00,bandar seri begawan (brunei),,,other,15,10-15 seconds,closest encounter with a UFO - 30-40 feet away,7/16/2006,4.890278,114.942222
11912,1999-01-01 00:00:00,seoul (korea),,,fireball,300,5min.,spere with long tail (light or something like fire),5/24/1999,37.566535,126.977969
11913,1999-01-01 01:35:00,puerto ordaz&#44 bolivar (venezuela),,,light,180,3 min,It was a ligth in a rounded shape&#44 hight speed &#44 acrross a big area&#44 we saw the oval shape because of full moon,2/16/1999,8.275092,-62.767663
11932,2000-01-01 00:45:00,canouan (caranage bay resort) (grenadine islands),,,changing,60,1 minute,Witness and I both viewed an object which appeared very close then moved across the sky changing shape&#44 then moved off slowly out of si,04/01/2000,12.725493,-61.323937
12007,2003-01-01 20:42:00,port elizabeth (south africa),,,circle,180,180 seconds,the craft followed a satelite from south westerly direction towards the south easterly direction crossing the path off the satelite fou,03/04/2003,0,0.0
12013,2004-01-01 00:05:00,funchal (madeira) (portugal),,,triangle,120,about 2 mins,In the end of the fireworks i saw a small light in the sky,02/12/2004,32.666933,-16.924055
12027,2004-01-01 22:00:00,kosovo,,,triangle,10,5 - 10 seconds,Massive silent black triangle over Kosovo,08/05/2009,42.581372,20.889336
12051,2006-01-01 01:40:00,panama,,,oval,60,around 60 secs,Red oval object flying over Panama sky at 1:40am on 1/1/06,2/14/2006,0,0.0
12059,2006-01-01 21:30:00,clovelly (devon&#44 uk/england),,,other,8,8 seconds,4  square different coloured panels were 100% visible~ headed out towards the Bristol chanel and was out of sight,2/14/2006,50.999281,-4.399824
12081,2007-01-01 04:33:00,ellisras (south africa),,,unknown,60,1 min,Alleged UFO crash in Ellisras South Africa,02/01/2007,-23.666466,27.744829
12087,2007-01-01 13:00:00,larne (northern ireland),,,circle,0,unsure,sighting in northern ireland and possible abduction.. ongoing,8/24/2010,54.8575,-5.80986
12088,2007-01-01 13:40:00,hainault (on the london/essex border) (uk/england),,,triangle,240,3-4 minutes,In clear daylight three white lights in triangular formation very high in sky moving eastwards.,02/01/2007,51.608139,0.10079
12136,2008-01-01 18:20:00,kayamkulam (in kerala state) (india),,,circle,1245,20:45,I have seen a mysterious light&#44 flaming&#44 exciting Colour changing&#44 moving towards upwards in the shape of an Indian &#8216;coin&#8217;,1/21/2008,9.16572,76.503228
12148,2009-01-01 00:00:00,bandar seri begawan,,,unknown,1200,20 min,Obj. captured in camera on new year eve fireworks photo assignment for the press agency.  ((NUFORC Note:  Aircraft&#44 we believe.  PD)),01/10/2009,4.890278,114.942222
12212,2010-01-01 00:15:00,northern ireland,,,sphere,300,5 minutes,I was looking out my living room window when I saw a light in the sky which I thought must be an aeroplane but we don&#39t normally have t,2/14/2010,54.787715,-6.492315
12222,2010-01-01 00:30:00,strabane (county tyrone) (northern ireland),,,circle,3600,1 hour,orange lights,2/14/2010,54.827269,-7.463579
12260,2011-01-01 00:30:00,port of spain (trinidad),,,sphere,600,5-10 min,SLOW MOVING OBJECTS IN THE NIGHT SKY&#44 NEW YEARS 2011,01/05/2011,10.666667,-61.516667
12278,2011-01-01 17:30:00,almelo (overijssel) (netherlands),,,sphere,30,30 seconds,Round&#44 orange/red spheres.,08/05/2012,52.355085,6.659865
12294,2012-01-01 00:01:00,johannesburg (south africa),,,sphere,2100,35 minutes,Four bright ornge lights flying in a wave like pattern emmiting other smaller orbs.,01/12/2012,0,0.0
12345,2012-01-01 17:00:00,potchefstroom (south africa),,,other,1800,+- 30 minutes,&quot;V&quot; SHAPE BALL WITH TWO TRAILS LIKE THE PEACE SIGN,01/12/2012,-26.71453,27.097048
12394,2013-01-01 00:22:00,johannesburg (south africa),,,disk,480,8 minutes,Triangular and a Disc shaped craft - SOUTH AFRICA.,02/04/2013,0,0.0
12490,2014-01-01 00:30:00,johannesburg (south africa),,,unknown,3600,1 hour,Strange rumbling/hovering sounds (not only heard&#44 but &amp;quot;felt&amp;quot;) eventhough no lights/aircrafts/UFO&#39s where seen,1/16/2014,0,0.0
12534,1966-11-20 00:00:00,viet nam (3 mi. off coast of; aboard ship),,,disk,0,,i watched this for about 15 min and then it just slowly moved away,4/14/2009,14.058324,108.277199
12551,1990-11-20 22:30:00,al - jubail (approx. 35 miles sw of) (saudi arabia),,,circle,60,1min,While on guard duty during Operation Desert Shield&#44 I and three others we&#39re talking at the entrance gate to our compound in the Saudi,10/12/2001,27,49.666667
12556,1992-11-20 01:30:00,calcutta (kolkata) (india),,,diamond,600,10 minutes,A sparkling ball with edges diffusing various coloured fashes.,12/19/2003,22.572646,88.363895
12571,1996-11-20 19:00:00,wirral (liverpool) (uk/england),,,triangle,300,5 minutes,three lights in formation.,2/18/2001,53.333333,-3.083333
12611,2001-11-20 14:00:00,george (south africa),,,circle,600,10 min,Silver objects moving across the sky in South Africa&#44 George,8/27/2009,0,0.0
12653,2005-11-20 13:00:00,prague (czech republic),,,disk,15,15s,UFO scaning hill and flyed up...,12/16/2005,0,0.0
12658,2005-11-20 20:00:00,acapulco (guerrero&#44 mexico),,,circle,30,30 seconds,after work we 3  ships  flying  across the sky in acapulco in mexico,2/14/2006,16.863611,-99.8825
12753,2013-11-20 16:20:00,west bridgewater,,,,600,10 minutes,5 white lights coming together in the sky as they flickered while it flew across the sky. Very unusual and obvious to see.  Not a plane,12/02/2013,0,0.0
12813,2001-11-21 21:52:00,johannesburg (south africa),,,other,35,3&#445 seconds,There was an object that looked exactly like a star but it was moving to fast to be a satelite and to slow for a falling star &#33,12/05/2001,0,0.0
12816,2002-11-21 13:00:00,george (republic of south africa),,,light,600,10 min,Sharp fast moving bright objects seen in daylight,10/30/2006,0,0.0
12945,2013-11-21 19:20:00,fayetteville,,,sphere,10,10 seconds,Steady Orb with tail.,12/02/2013,0,0.0
12961,1968-11-02 23:59:00,mediterranean sea (near malta),,,triangle,0,uss shanger la,ITS NOV. 1968 &#44IT WASNT A SPUTNIC  R A SATELITE&#44IT STOPED IN MID SKY .&amp;TURNED 45 DEGREES&amp;WENT OUT OF SITE.,4/16/2005,34.553128,18.048011
13052,2003-01-12 07:02:00,sharjah (united arab emirates),,,oval,360,6minuits,At the time just when sun rises looking towards sun rise vertical plane with ~45 degree (elevation) a bright oval body appeared includi,3/21/2003,25.357522,55.391865
13054,2003-11-02 13:19:00,seoul (south korea),,,disk,1,less than 1 sec,Among 3 pictures taken in 1 sec in a row&#44 it showed only in the middle,11/08/2003,37.566535,126.977969
13073,2004-01-12 20:10:00,rotterdam (near) (netherlands),,,light,5,5 seconds,01/12/04&#44 20:10 dutchtime&#44 near Rotterdam&#44 two bright lights moving very fast&#44 from some kind of craft.,1/17/2004,51.921667,4.481111
13130,2007-01-12 08:10:00,milan (at sea on s.s. giovanni),,,sphere,1500,25min. ca,In two days  (01/11/07&#44 01/12/07&#44 this veicle appared in the sky of Milan three time.The fist time (01/11/07 17.15 pm )the veicle a,02/01/2007,0,0.0
13146,2007-01-12 21:30:00,bow (near crediton),,,other,120,2mins,big ball of light getting closer and bigger we all looked up and it was really bright. it was quite close car alarms set themselves off,06/12/2007,0,0.0
13204,2009-11-02 20:45:00,zimbabwe,,,flash,20,20 seconds,UFO identified on Monday 02 November 2009 at 20:45hrs in Triangle&#44 South eastern lowveld area in Zimbabwe,12/12/2009,-19.015438,29.154857
13277,2012-11-02 10:25:00,carolina (south africa),,,disk,1,1 second,((HOAX??  DATE IS FLAWED))  We capture a UFO  on video during my amateur rocket launch,11/04/2012,0,0.0
13316,2013-11-02 18:45:00,esch-an-der-alzette (luxemburg),,,light,60,00:01:00 (estimate),Time: 18:45 (6:45 PM).Date: 11/02/2013 (2 November 2013).Location: Esch-an-der-Alzette&#44 Luxemburg. Description of event: Wa,11/11/2013,49.500881,5.986093
13364,2014-01-12 18:00:00,burton on trent  (staffordshire) (uk/england),,,light,180,3 minutes,Red/green lights moving at various speeds.,1/16/2014,52.814028,-1.637136
13395,1999-11-22 19:30:00,messina (south africa),,,unknown,900,+/- 10-15 min,I was looking at the stars and strangly I was looking at a specific star&#44 when it suddently dissapear. The star did shine brightly&#44 it,12/16/1999,0,0.0
13400,2000-11-22 14:00:00,ballina (republic of ireland),,,disk,30,30 secs.,Large metallic disk in Irish countryside,12/02/2000,-28.868483,153.560001
13476,2006-11-22 01:25:00,uk/england (in flight),,,unknown,5,5 seconds,2 flying objects close to England in front of the airplane,3/31/2008,52.355518,-1.17432
13514,2009-11-22 00:00:00,kuwait,,,light,5,5 sec,one light over Camp LSA&#44 Kuwait; moving fast - made a &quot;z&quot; maneuver.,12/12/2009,29.31166,47.481766
13523,2009-11-22 22:55:00,johannesburg (south africa),,,fireball,60,1 minute,Massive fireball turns night in to day in Johannesburg,12/12/2009,0,0.0
13550,2012-11-22 01:30:00,cape town (south africa),,,,120,2 minutes,MOON SIZED OBJECT SEEN.,12/20/2012,-33.924868,18.424055
13602,2013-11-22 19:30:00,quintana roo (secrets capri) (mexico),,,formation,60,60 seconds,Our first night in Cancun&#44 we randomly ended up having dinner outside.  My wife (completely not a UFO believer) happened to notice some,12/02/2013,19.181739,-88.479138
13614,1963-11-23 18:00:00,uss kearsarge (at sea&#44 out of japan),,,chevron,300,5 minutes,Observed 5 lights in a inverted &quot;V&quot; rise from the horizon&#44 hover for a few minutes and then sink back down below the horizon. We were a,06/02/1998,0,0.0
13649,1999-11-23 19:00:00,moon (near the moon surface),,,cigar,3,3 seconds,Observing the moon with binoculars.  Shape crossed so near the moon&#39s surface that it casted a shadow on the moon as it passed - HUGE &#33,11/30/1999,0,0.0
13656,2000-11-23 14:00:00,new zealand,,,oval,0,,couldn&#39t see with the eyes but got it on film,03/06/2001,-40.900557,174.885971
13682,2002-11-23 20:45:00,philippines,,,unknown,900,15 min,It was night of the month of november&#44 there was an electric failure&#44 so the whole place was dark. Me and my sister are fond of looking,12/09/2003,12.879721,121.774017
13684,2002-11-23 21:09:00,mexico (coastal waters&#44 west),,,unknown,5,5 seconds,Soundless flashing object crosses sky in 5 seconds&#44 ENE to WSW,12/23/2002,0,0.0
13722,2006-11-23 19:00:00,barnala sherpur (village) (india),,,triangle,1800,30min,long cyclinderical or triangle ufo sighted in India,12/07/2006,30.438101,75.705165
13819,2013-11-23 20:45:00,glendale,,,triangle,420,5-7 minutes,Triangular ufo.,12/02/2013,0,0.0
13825,2013-11-23 22:00:00,kenya,,,,0,,I don&#39t know if anybody looks up in the sky at night in Nairobi.What are those very close and bright lights . When you spot them y,12/02/2013,-0.023559,37.906193
13927,2007-11-24 21:20:00,san jose (costa rica),,,triangle,1800,30 minutes +,colors changed from orange to white to yellow. first appeared starlike&#44 but moved generally east to west&#44 but also moved sideways over,11/28/2007,0,0.0
13976,2011-11-24 22:00:00,playa del carmen,,,light,180,three minutes,Three sets of three red-coral neon lights in line&#44 &quot;following&quot; one another&#44 from mainland crossing to Cozumel island&#44 in M&eacute;xico,12/12/2011,20.629559,-87.073885
14146,2009-11-25 08:03:00,dubai (united arab emirates),,,other,0,unknown,a black bean shaped object floating in the sky .,12/12/2009,25.047664,55.181741
14170,2011-11-25 17:00:00,amed,,,disk,900,15 minutes,Silent ufo hanging over the ocean bali,12/12/2011,37.91441,40.230629
14201,2013-11-25 13:00:00,island of the sun (bolivia),,,sphere,0,,Lake Titicaca purple UFO above island of the moon.,12/02/2013,25.082252,-77.268263
14254,2002-11-26 17:00:00,dhahran (saudi arabia),,,circle,600,10 minutes,A very bright circular light hovering for about ten minutes and then vanishing in a split second.,12/23/2002,26.266667,50.15
14277,2004-11-26 13:00:00,uk/england,,,oval,420,7 minutes,3 oval shaped ships with bright lights/beams,12/03/2004,52.355518,-1.17432
14361,2012-11-26 19:47:00,durban (south africa),,,circle,0,going on for a while and,2 crafts that flash dramatically.,12/20/2012,-29.85868,31.02184
14379,2013-11-26 19:30:00,brandon,,,circle,0,5,Bright orange balls flying north over Brandon&#44 Florida&#44 at speeds much faster than any jet.,12/02/2013,0,0.0
14427,2000-11-27 07:11:00,iceland (approximately; over water),,,fireball,1200,20 mins,unusual lights over oceans,12/02/2000,64.963051,-19.020835
14444,2002-11-27 16:00:00,turks (and caicos),,,unknown,0,,This is a link to a cnn.com report on a mysterious contrail.,12/23/2002,51.927751,0.024258
14459,2004-11-27 13:35:00,republic of ireland,,,unknown,420,7 mins,Alien sighting.  ((NUFORC Note:  Possibly not a serious report.  We cannot be certain.  PD)),6/20/2005,53.41291,-8.24389
14499,2007-11-27 22:00:00,kolar (bangalore) (india),,,light,7200,2 hours,bright objects changing colour in the sky.  ((NUFORC Note:  Sirius.  PD)),11/28/2007,13.135745,78.132561
14541,2011-11-27 19:10:00,seoul (south korea),,,fireball,10,10 sec.,Low flying orange ball flies over Seoul&#44 disappears,12/12/2011,37.566535,126.977969
14594,1999-11-28 23:15:00,paphos,,,sphere,30,30 seconds,Nothing man made can be so big and fly so slow&#44make no sound and make night into day.,08/05/2001,34.772013,32.429737
14655,2005-11-28 09:00:00,honiara (aku malaita) (solomon islands),,,circle,10800,3 hours plus,The object covers the sun.,11/21/2010,-9.445638,159.9729
14803,2013-11-28 17:30:00,pendleton,,,light,0,present as of 18:20,Bright white stationary light over Pendleton&#44 IN.  ((NUFORC Note:  Sighting of Venus.  PD)),12/02/2013,0,0.0
14924,2006-11-29 18:00:00,uk/england (unspecified location),,,fireball,900,15 min,a glowing ball of light fading and coming back&#44 stationary and moving&#44passing behind trees and past the local tv mast,12/07/2006,52.355518,-1.17432
14953,2010-11-29 21:00:00,afghanistan,,,light,1200,15-20 mins,TWO ORANGE/RED LIGHTS ADJACENT TO EACH OTHER NO MOVEMENT,01/05/2011,33.93911,67.709953
14969,2012-11-29 00:00:00,sharjah (dubai),,,formation,3600,1 hour,OVAL SHAPED FORMATION OF WHITE UFO&#39S.....,12/20/2012,25.357522,55.391865
15248,2000-11-03 01:24:00,beograd (yugoslavia),,,sphere,10,10s,v-formation of light(?)&#44 white-blue balls(8-12)&#44,2/18/2001,44.820556,20.462222
15329,2005-11-03 01:30:00,norman island (britsh virgin islands),,,oval,120,2 minutes,Oval object with two sets of lights around Outter edge.  2-3 minutes,11/08/2005,18.318899,-64.61106
15395,2007-01-13 11:30:00,rio piedras,,,unknown,604800,1 week,Yacimiento cientifico de madre e hijos encontrados en Rio Piedra,01/10/2009,18.399722,-66.05
15743,2005-11-04 00:00:00,las americas (tenerife&#44 canary islands),,,light,2,seconds,Green light travelling at speed.  ((NUFORC Note:  News article.  Possible meteor sighting.  PD)),12/16/2005,4.62977,-74.13401
15878,2010-11-04 20:45:00,johannesburg (south africa),,,oval,2700,45 minutes,Bright light in seen south of johannesburg south africa,11/21/2010,0,0.0
15890,2011-01-14 16:30:00,vieux fort,,,egg,300,2-5 minutes,Metallic egg shaped hovered behind resort and untill right of mountain&#44 lasting 2-5 minutes.,1/31/2011,13.728,-60.954
15894,2011-01-14 18:00:00,wirral (merseyside)(uk/wales),,,other,30,30 seconds,a group of red lights over north wales and merseyside,1/31/2011,53.333333,-3.083333
15897,2011-01-14 19:30:00,subotica,,,,0,,It was looked like hamburger and it was been few windows and all was have a light white very white lights and it was been on about 30 m,1/24/2012,46.100278,19.665556
15916,2012-11-04 14:30:00,pretoria (south africa),,,light,5,5 seconds,Fast moving lights across the South African sky,11/04/2012,-25.746111,28.188056
16019,1971-01-15 13:00:00,turin&#44 northern italy,,,triangle,120,2minutes,At 1 P.M.in a clear sky&#44 a grey triangle with a light in the middle hovered over city for about 2 min&#44 then disappeared in1sec,10/12/2001,45.070312,7.686856
16022,1974-01-15 18:30:00,puerto rico,,,disk,600,10=minutes,U.F.O.  Over Puerto Rico Appeared To Be Comming In for An Ocean Landing&#33,12/16/2005,18.220833,-66.590149
16051,1987-11-05 01:00:00,australia,,,disk,0,,crackling sound flash of very bright light zipped away very fast,09/02/2005,-25.274398,133.775136
16149,2000-01-15 20:15:00,lake macquarie (nsw&#44 australia),,,circle,900,15 min,At the approx time of 8.15pm a bright circular red light was spotted north east of Lake Macquarie NSW Australia.,04/01/2000,-33.093373,151.588982
16210,2003-01-15 17:30:00,dublin (republic of ireland),,,oval,1200,20 minutes+,Two dim oval shaped lights behind low cloudcover seen for 20 minutes over Dun Laoghaire&#44 Co Dublin&#44 Ireland in the North Eastern sky.,3/21/2003,0,0.0
16212,2003-01-15 18:55:00,derry (republic of ireland),,,cigar,1500,25 minutes,6 long lights flew at slow speed the seperated into two groups of three.,03/04/2003,0,0.0
16346,2007-01-15 15:00:00,mosul,,,diamond,0,unknown,Diamond shaped object over Mosul,08/12/2008,36.34,43.13
16417,2009-11-05 20:45:00,manchester area (bury&#39),,,circle,600,5-10 minutes,I saw three objects in all appearing in intervals that lasted a few seconds &#39maybe half a minute each time.the first one appeared f,12/12/2009,14.351875,120.931505
16424,2009-11-05 22:30:00,isle of man,,,circle,1230,20:30,Orange sphere halo silent,12/12/2009,54.236107,-4.548056
16441,2010-11-05 11:08:00,acojeja (tenerife) (spain),,,triangle,0,,Sharp picture of UFO above Tenerife nov 5th 2010,11/21/2010,28.196674,-16.762351
16601,1995-01-16 20:00:00,kuwait,,,fireball,300,5 mintues,green fire ball in KUWAIT toward the sky &#44 and a power failure at the same location for one hour,2/14/2008,29.31166,47.481766
16647,2001-11-06 22:15:00,mount levniya (sri lanka),,,oval,5,3-5 second,I saw what looked like a large orange firebal with very bright color and its have a tail and i thing it is measure the speed of object,11/19/2012,6.839722,79.875833
16736,2006-11-06 03:30:00,republic of ireland,,,other,3600,60 min,Square UFO seen by passenger of commercial plane,02/01/2007,53.41291,-8.24389
16783,2008-11-06 01:00:00,puerto rico,,,teardrop,18000,5 hours,The teardrop ship was making a huming sound wen it was stationary.,01/10/2009,18.220833,-66.590149
16806,2009-11-06 03:00:00,saquarema (rio de janeiro) (brasil),,,light,10,~ 10 seconds,Orangeyred lights 3 in a triangle equidistant were still&#44 no sound&#44 same shape zoomed off horizontally altogether,2/14/2010,-22.932382,-42.486684
16859,2011-11-06 10:00:00,on tv sunday night football,,,,1,1 second,Live footage of possible ufo at Sunday night football game happens again?,12/12/2011,0,0.0
16983,1991-01-17 02:46:00,iraq (10 km inside border with kuwait),,,triangle,300,5min,Strange black triangle moved close to our formation,12/09/2003,33.223191,43.679291
17007,1999-01-17 22:30:00,hamedan (iran),,,triangle,3,3 sec,I WAS IN MY YARD THAT I SAW A FLYING OBJECT .,06/12/2002,34.8,48.516667
17041,2002-11-07 20:10:00,castleford nr leeds,,,fireball,2,2seconds,While walking my dog on a cold clear night&#44 I saw a large Fireball travelled east to west at fantastic speed.,11/09/2002,53.800755,-1.549077
17107,2004-11-07 22:00:00,drenthe (on highway in) (netherlands),,,disk,60,about 1 minute,Revolving Disk-like object.,11/09/2004,52.947601,6.623059
17151,2006-11-07 12:00:00,estonia,,,disk,2,few seconds,Strange object appeared on picture,2/24/2007,58.595272,25.013607
17200,2008-11-07 14:25:00,new mumbai,,,disk,600,10 mins,Silver disc sighted in the afternoon&#44 Mumbai&#44 India.,01/10/2009,19.033049,73.029662
17362,2014-01-17 21:15:00,muscat (sultanate of oman),,,cigar,15,10-15 seconds,Individually technologically explainable&#44 except speed and collectively improbable.,1/24/2014,23.61,58.54
17365,1943-01-18 07:15:00,fiji islands (s. pacific ocean),,,,10,10 sec.,Crew contingents of 2 USN vessels see reconnaissance plane fly into something invisible to witnesses.,08/11/2004,-18,178.0
17427,2001-01-18 21:15:00,uk/england,,,light,600,10 mins,Two bright moving lights&#44 silent and pink in colour &#33,2/18/2001,52.355518,-1.17432
17619,2008-01-18 20:00:00,nuevo laredo (70km sw of) (mexico),,,fireball,180,2-3 minutes,bright ball seen in the northern sky traveling south from Nuevo Leon Mexico,03/04/2008,27.477936,-99.549573
17629,2009-01-18 00:00:00,atlantic ocean,,,cigar,120,1-2 minutes,3 unusual&#44 brightly lit craft seen to be using cloud as cover in mid-Atlantic.,3/19/2009,-14.599413,-28.673147
17689,2010-11-08 20:00:00,((unspecified location)),,,,0,,While traveling on the 303 sometime after 8:00pm; I spotted five off white lights in the sky&#44 north of the 303 and eas,11/21/2010,0,0.0
18078,2011-11-09 20:00:00,singapore,,,light,1260,21:00,It&#39s huge like it is near to the building. The color changed. The color&#44 to me&#44 I have never seen it before. It moves in a Zigzag shape,07/04/2012,1.352083,103.819836
18096,2012-01-19 15:00:00,medina (highway jerez) (spain),,,changing,180,3 minutes,UFO chasing birds on Highway,1/24/2012,0,0.0
18135,2013-11-09 07:30:00,johannesburg (south africa),,,oval,2,seconds,On my way to work at 7:30 am&#44 I looked at the clouds and thought the middle cloud looked like an angel.,01/10/2014,0,0.0
18236,2000-01-20 22:50:00,puntarenas (costa rica),,,triangle,5,5 seconds,Black Triangular Craft moving north to south at time of lunar eclipse. Well camoflaged&#44 it appeared as if a piece of the sky had moved.,2/16/2000,9.977844,-84.829421
18246,2001-01-20 22:30:00,cape town (south africa),,,triangle,2400,+-40mins,bright arrow shape lights over Cape Town South Africa,2/18/2001,-33.924868,18.424055
18364,2011-01-20 00:30:00,international space station,,,sphere,600,10 minutes,weird lights from the International Space Station  live feed January 20&#44 2011&#44 9 minute clip,1/31/2011,6.573475,3.322563
18375,2012-01-20 11:30:00,jamaica to canada (in flight),,,circle,40,40 seconds,Jamaica to Canada - we witnessed 3 UFOS and then a scrambler jet fly by.  ((NUFORC Note:  Possible reflection off window??  PD)),1/24/2012,43.708795,-79.387626
18438,1994-12-10 20:00:00,uk/england,,,oval,30,30 seconds,Large zeppelin shaped craft moves many miles effortlessly across London sky then disappears.,12/03/2004,52.355518,-1.17432
18451,1997-12-10 10:00:00,australia,,,triangle,10800,1 to 3 hrs,the object was just still in the sky above aus making a huming noise,8/24/2004,-25.274398,133.775136
18466,1999-12-10 16:30:00,cochin (near) (china),,,other,10,10 sec,a bullet like object  in air very close to earth&#44so directional and path changing,10/11/2005,9.931233,76.267304
18732,2007-12-11 23:45:00,kuwait,,,light,25,25 sec,a fading light over Kuwait&#44 this light was behaving like a one side light of a round object that was circling it self&#44,03/04/2008,29.31166,47.481766
18774,2012-12-11 06:00:00,milano,,,diamond,600,10 minutes,Giant star which moves slowly &#44goes above and then towards right then disappeared.,12/20/2012,0,0.0
18848,1993-12-01 22:00:00,indian ocean,,,light,5,5 seconds,Light over military aircraft,3/19/2009,-33.137551,81.826172
18891,1999-12-01 23:00:00,santo domingo (dominican republic),,,teardrop,3,2-3 seconds,I saw through a 5&quot; telescope a black tear shaped object against the moon&#44s disc. It moved spinning its backwards directed narrow end.,8/19/2000,0,0.0
18892,2000-01-21 00:12:00,valencia&#44 carabobo (venezuela),,,triangle,15,15 seconds,Despu&eacute;s de observar la eclipse Lunar del 21 de Enero de 2000&#44 vi en el cielo una formaci&oacute;n en V de 5 objetos color naranja. No se sinti,2/16/2000,10.157931,-67.99721
19016,2004-01-21 06:35:00,kaiserslautern/mainz (on autobahn) (germany),,,flash,2,2 seconds,Light flash turning early morning darkness into daylight,1/22/2004,49.992862,8.247253
19057,2006-12-01 02:00:00,saipan,,,triangle,10,10 seconds,the ufo appeared for 10 seconds and it was gone faster then i can blink my eyes&#33,12/07/2006,0,0.0
19078,2006-12-01 22:00:00,mexicali (baja california) (mexico),,,circle,300,5 minutes,flying multicolor rotating circle very fast and akward movements once entering U.S. airspace.,12/07/2006,32.624539,-115.452262
19123,2008-01-21 22:00:00,u. s. virgin islands (cruz bay),,,light,0,every night,Every night I see this object in the sky from St John U.S.Virgin Islands.  ((NUFORC Note:  Perfect description of Sirius.  PD)),2/14/2008,18.335765,-64.896335
19202,2011-12-01 21:00:00,seoul (south korea),,,light,0,unknown,Multiple lights seen by multiple witnesses in Seoul,12/12/2011,37.566535,126.977969
19206,2012-12-01 00:00:00,sri lanka (in most cities),,,changing,0,long time,In Sri Lanka everywere last week UFOs seen by people children lot of witness video everywhere please look into it every where all TV st,12/20/2012,7.873054,80.771797
19208,2012-01-21 03:00:00,el tanque de la fortuna (costa rica),,,unknown,600,10 minutes,Red/Blue/Bright White flashing lights near Arenal Volcano&#44 Costa Rica,1/24/2012,10.477465,-84.580681
19231,2012-12-01 22:35:00,philippines,,,other,180,2-3 minutes,Normal reddish star&#44 grew brighter and bigger&#44 disappeared&#44 (might) reappared and start moving left.,12/20/2012,12.879721,121.774017
19233,2012-12-01 23:15:00,uk/england (south coast of),,,light,60,1 minute,2 Fireball coloured lights following each other traveling into the ocean off the south of England. Both changed direction then vanished,12/20/2012,52.355518,-1.17432
19279,1972-12-12 15:00:00,port elizabeth (south africa),,,unknown,32400,15:00/24:00,WE WERE CAMPING OUT NEAR SARDINA BAY 65 MILES FROM P.E.  IN A PARTY OF ABOUT 12 OTHERS&#44 MY DAD NEEEDED SOME GEAR FROM HOME I WENT WITH,2/24/2007,0,0.0
19299,1998-12-12 18:00:00,amsterdam (the netherlands),,,circle,300,5 min.,great circle with lights over Amsterdam,02/01/2007,0,0.0
19323,2003-12-12 04:05:00,saudi arabia,,,unknown,0,unknown,HBCCUFO CANADIAN REPORT:  It was capsule in shape&#44 no windows.,12/19/2003,23.885942,45.079162
19325,2003-12-12 17:30:00,bilbao,,,oval,900,15 min,Happened in Bilbao 17:30 Saturday.One craft flaying in right line&#44 and at the same time&#44 it was balanced on its axis about 45&#186; apro,06/04/2004,43.263013,-2.934985
19347,2005-12-12 18:18:00,seika-cho (kyoto prefecture) (japan),,,chevron,20,20 seconds,slow&#44 silent boomerang&#44 5 dim lights&#44 traveling about  75m from ground in Japan,12/16/2005,34.760856,135.785833
19393,2008-12-12 19:12:00,in orbit,,,circle,0,,YAHOO NEWS-SHUTTLE/PICTURE Re: 139 of 176. Peter&#44out of curiosity&#44I see One Large Circle&#44and 7 smaller ones&#44that are in this picture. T,01/10/2009,17.425638,78.533244
19397,2008-12-12 23:57:00,los cristianos (tenerife),,,triangle,60,1 minute,Triangle of lights flying silent&#44 faster than an helicopter.,01/10/2009,28.0512,-16.709685
19410,2009-12-12 20:48:00,larne (northern ireland),,,circle,30,30 seconds,Bright orange travelling over county antrim coast northern ireland,12/12/2009,54.8575,-5.80986
19519,2001-12-13 19:00:00,atlantic ocean (mid-atlantic),,,unknown,2700,45 mins&#44roughly,elal flight enroute jfk- object left side of aircraft around 33&#44000 boeing 777 enroute to telaviv-bengurion - object  we say is size of,04/08/2002,-14.599413,-28.673147
19636,2011-12-13 22:00:00,prague (czech republic),,,fireball,60,1 minute,Flying fireball in Prague,01/12/2012,0,0.0
19739,2002-12-14 02:32:00,evans shire (nsw&#44 australia),,,triangle,0,05-Oct,a three lighted object off extream size flewover &#44 it then seemed to realese objects at 90degees to it into the atmosphere&#44 then turnin,12/23/2002,-33.419544,149.60509
19818,2010-12-14 17:00:00,lincoln,,,light,2,2 seconds,Trail of light behind a brighter circle of light at front of steam which was brighter,01/05/2011,0,0.0
19848,2012-12-14 20:00:00,grand turk (caribbean),,,egg,60,1 minute,Gold egg seen from cruise ship,02/04/2013,21.460278,-71.141389
19880,1969-12-15 21:00:00,viet nam (location not specified),,,disk,900,15 minutes,Saucer and Dome observed by Starlite Scope in Vietnam During the War.,7/16/2003,14.058324,108.277199
19902,1987-12-15 22:00:00,guyana,,,unknown,5,5 seconds,Object streaked at a very high speed into the sky. Object was kinda redish and orange in color and looked kind of round from the distan,12/23/2002,4.860416,-58.93018
19957,1999-12-15 07:10:00,county cork (republic of ireland),,,light,3,3 seconds,Waiting for a bus when a n object&#44 travelling at tremendous speed&#44 past my line of sight. it was travelling to fast to be man made. ver,01/07/2000,51.896892,-8.486316
19971,2000-12-15 18:00:00,hong kong from bangkok (flight to),,,disk,0,?,a shot of a cloud formation. Then after development I noticed what looks like on saucer&#44 maybe 2 more. In two pictures taken  after a f,08/05/2001,13.899561,100.582564
19979,2001-12-15 10:00:00,republic of ireland (on beach),,,other,120,2 mins,Craft above water suspended,4/25/2002,53.41291,-8.24389
19986,2002-12-15 01:00:00,united kingdom (location unspecified),,,triangle,18000,5 hours,In the winter of 2002&#44 me and my father toke a interest in ufo spotting&#44 using different things to contact them e.g powerful torchs&#44 we,2/14/2010,55.378051,-3.435973
20004,2003-12-15 07:45:00,dublin (republic of ireland),,,triangle,900,15 mins,rectangle of bright light  and delta shaped craft noticed too,12/19/2003,0,0.0
20194,2000-12-16 22:30:00,johannesburg (near) (south africa),,,triangle,300,4-5 min.,Triangular craft  in South African skies.,4/22/2003,0,0.0
20196,2001-12-16 11:45:00,loeriesfontein (south africa),,,disk,0,??,Interesting photo,01/11/2002,-30.954167,19.448333
20220,2004-12-16 11:00:00,s&atilde;o paulo (brasil),,,formation,1800,30 min,black twins UFO,01/11/2005,-23.55052,-46.633309
20312,2011-12-16 21:30:00,atlantic ocean (in flight),,,light,300,5 minutes,Crew of Lear jet over the Atlantic Ocean report a bizarre&#44 red strobing object.,12/17/2011,-14.599413,-28.673147
20315,2011-12-16 22:18:00,tabriz,,,fireball,240,4 min,Observing a UFO on Tabriz Sky. IRAN (Picture and movie avalible),01/12/2012,38.066667,46.3
20531,2002-12-18 10:33:00,laguna lachua national park,,,light,26,26 seconds,big blue light ufo sightning over NATIONAL PARK LACHUA&#44 GUATEMALA C.A.,03/04/2003,15.898499,-90.658333
20607,2010-12-18 23:47:00,sharjah,,,light,120,2 mins,I saw the same lights again a day later but this time inside sharjah city&#44 densely populated neighbourhood with  high rise buildings,01/05/2011,25.357522,55.391865
20617,2011-12-18 20:00:00,florida,,,sphere,15,15 seconds,An extreamly bright white ball of light got brighter in the sky moved north then faded away .,01/12/2012,0,0.0
20619,2011-12-18 21:00:00,atlantic ocean (on cruise ship),,,other,30,30 seconds,BEAUTIFUL CLEAR NIGHT ON CRUSE SHIP  SEEN METAL LIKE BIRD  SHINE BEAM ON SHIP,01/12/2012,-14.599413,-28.673147
20630,2012-12-18 06:00:00,caracas (venezuela),,,circle,3,3 seconds,Dear gentelmen&#44  On Tuesday December 18&#44 2012&#44 at 6:00 Hour Local Time here in Venezuela&#44 I took a picture with an iphone from the balc,02/04/2013,10.5,-66.916667
20631,2012-12-18 06:00:00,caracas (venezuela),,,disk,0,,On Tuesday December 18&#44 2012&#44 at 6:00 Hour Local Time here in Venezuela&#44 I took a picture with an iphone from the balcony of my apartme,02/04/2013,10.5,-66.916667
20636,2012-12-18 13:30:00,brisbane,,,triangle,300,5 minutes,Fluorescent Colour splash lingering in the sky.,12/20/2012,0,0.0
20642,2012-12-18 18:30:00,gma (area k) (philippines),,,light,1200,10-20 minutes,Fire orange lights over GMA&#44 Cavite&#44 Philippines.,12/20/2012,14.306694,121.01373
20678,1999-12-19 15:00:00,rio piedras,,,rectangle,1200,00:20:00,I remembered this about 4 years after the fact. It came backs suddenly. I was on the roof of my house  about to clean the leaves wh,3/19/2009,18.399722,-66.05
20709,2003-12-19 19:30:00,toulouse (southeastern suburbs) (france),,,disk,0,,Just before Christmas unusual glows following car drivers were reported in the southeastern suburbs of Toulouse&#44 Then January 10th 2004,1/17/2004,43.604652,1.444209
20713,2004-12-19 20:00:00,kuwait,,,oval,240,4 minuts,4 din lights in the sky  ((NUFORC Note:  Advertising lights??  PD)),01/11/2005,29.31166,47.481766
20729,2006-12-19 21:30:00,afghanistan,,,light,180,3 min,Golden lights pulsating,08/07/2007,33.93911,67.709953
20743,2009-12-19 18:00:00,caracas (venezuela),,,cylinder,300,5 min,cratf of cilindrical shape with 2 differents halos seen around,2/14/2010,10.5,-66.916667
20758,2011-12-19 04:30:00,pretoria (south africa),,,light,240,+-4 minutes,Unknown bright star-like light moving over Pretoria&#44 RSA,01/12/2012,-25.746111,28.188056
20788,2013-12-19 18:30:00,padang (west sumatra)(indonesia),,,cylinder,5400,1.5 hour,Again a cylinder type with very bright lights rotating it in Padang sky&#44  West Sumatra&#44 Indonesia for 1.5 hours.,12/23/2013,-0.95,100.353056
20801,1973-01-02 23:00:00,japan,,,light,0,3+,I was stationed at Yokota AFB and and somewhere in the first couple days of the new year we came to catch a C-5 and two 141s when they,05/12/2009,36.204824,138.252924
20818,2000-01-02 19:00:00,tinaquillo (venezuela),,,oval,15,15 seconds,I saw three silver colored lights moving all in the same direction without any sound being heard.,01/03/2001,9.916667,-68.3
20881,2007-01-02 00:00:00,thailand,,,circle,0,,It is like the film Independence day,02/01/2007,15.870032,100.992541
20907,2008-01-02 04:35:00,brazil,,,sphere,20,20s,2 spheric objects&#44 pretending stars&#44 moving and disapearing.,1/21/2008,0,0.0
20911,2008-01-02 20:15:00,farallon (outside panama city),,,fireball,60,one minute,red orange fireball  across sky then making a 90 degree turn&#44 moving fast again&#44 then disappeared,2/14/2008,33.386013,-112.612416
20992,1966-12-20 20:00:00,trinidad (location unspecified),,,unknown,0,,LIQUID,12/14/2004,0,0.0
21029,1999-12-20 15:30:00,sweden,,,fireball,0,,It moved over the sky in high speed and the air controler in Gothenburg and Malmo and even pilots have seen it. It has been on the news,01/07/2000,60.128161,18.643501
21050,2003-12-20 03:40:00,ipatinga (minas gerais) (brasil),,,oval,60,1 min,uma luz em forma de bola fazendo zig-zag  em dire&Atilde;&#167;ao de uma usina siderurgica que umas das maiores do mundo,01/05/2011,-19.470757,-42.548012
21105,2009-12-20 03:00:00,south africa,,,light,120,2 minutes,On the early hours of the morning I was sitting outside on the stoep. I was looking towards a nearby river when I saw a bright light at,10/30/2012,-30.559482,22.937506
21157,2012-12-20 21:00:00,tehran (iran),,,light,3,3 seconds,UFO traveled at high speed for 2 seconds changing its path.,02/04/2013,35.696111,51.423056
21158,2012-12-20 21:20:00,johannesburg (south africa),,,fireball,10,10 seconds,Large red/orange light moving fast over Johannesburg. Not an aircraft&#33,12/20/2012,0,0.0
21173,2013-12-20 20:35:00,jeffreys bay (south africa),,,sphere,10,10 seconds,Large spherical fireball moving faster than Boeing towards sea.,12/23/2013,-34.033333,24.916667
21252,2008-12-21 11:30:00,mexico,,,sphere,600,10 minutes,Sphere with clear halo seen in Mexico City,01/10/2009,0,0.0
21368,2001-12-02 20:00:00,dublin (republic of ireland),,,disk,240,4 minutes,This disk had red and white lights on it and it just seemed to hoover to the west of us&#33,12/05/2001,0,0.0
21372,2001-01-22 21:00:00,cape town (south africa),,,fireball,1200,20 minutes,While walking through the bushes and keeping an eye out for lions we saw a number of fiery objects flw slowly through the sky not far f,3/16/2001,-33.924868,18.424055
21542,2010-12-02 12:00:00,mount lavinia (sri lanka),,,triangle,120,00:02 minutes,When i was out a triangle shaped lights just flew over.,01/05/2011,6.839722,79.875833
21565,2011-12-02 07:10:00,seoul (south korea),,,circle,0,seoul (south korea),They only look like balls of light; circling around.  ((NUFORC Note:  Advertising lights swirling ion the bottoms of clouds.  PD)),12/12/2011,37.566535,126.977969
21601,2012-12-02 21:00:00,klerksdorp (south africa),,,oval,300,5 minutes,Red oval object with flat top changing color as moved away,02/04/2013,-26.866667,26.666667
21642,2014-01-22 20:00:00,northern europe (undisclosed city),,,disk,60,40-60 seconds,Saucer disc&#44 saw it twice report around three weeks late,2/21/2014,62.278648,12.340171
21652,1997-12-22 22:27:00,costa rica,,,disk,0,,12/26/97.. A mass sighting of UFOs over Costa Rica&#44 C.A. was reported on CNNs web site this morning.. you might want to check it out.,03/07/1998,9.748917,-83.753428
21669,2000-12-22 03:00:00,shiraz (iran),,,circle,13,10 to13sec,It was a round object pulsating green light all over it. It was there and then suddenly vanished.,08/05/2001,29.591768,52.583698
21693,2004-12-22 07:55:00,frederiksted (st. croix&#44 us virgin islands),,,flash,120,2 minutes,Streaks of light moving quickly and erratically around an open field.,09/02/2005,17.712475,-64.881535
21729,2008-12-22 20:00:00,bogor,,,oval,240,3-4 minutes,Mysterious glowing aeroplane at night,01/10/2009,-6.6,106.8
21737,2009-12-22 23:32:00,str&aacute;&#382; pod ralskem (czech republic),,,unknown,60,1 minute,Vide&amp;#283;l jsem UFO&#44 kter&eacute; se podivn&amp;#283; pohybovalo po obloze&#44 st&amp;#345;&iacute;dalo barvy&#44 Ztr&aacute;celo se ze z&aacute;znamu&#44 z nepochopiteln&yacute;ch d&amp;#36,7/17/2011,50.702803,14.801027
21889,2007-12-23 04:00:00,san jose del cabo (baja california) (mexico),,,,3600,1 hour +,Bright light over San Jose del Cabo&#44 Baja Mexico around 4:00 AM. About 35 degrees above the horizon moving slowly to west.,03/04/2008,23.063656,-109.702438
22012,1990-12-24 20:00:00,uss john f. kennedy (atlantic ocean; near virginia),,,oval,45,45 seconds,It happened on board the USS John F Kennedy,06/10/2010,0,0.0
22018,1993-12-24 20:30:00,las marias,,,light,900,15 min,I am in the military and know all form of aircraft recognition.This night we had partial cloud in low overcast. The revolving light,4/17/2008,0,0.0
22050,2001-12-24 14:00:00,kerry (republic of ireland),,,cigar,40,35-40 seconds,2 cigar shaped objects sighted,01/11/2002,52.154461,-9.566863
22056,2001-12-24 21:00:00,punteranus (costa rica),,,flash,3,approx 2-3 seconds,two objects - one at a time shooting through the sky and extinquishing in mid flight...the second exactly the same - a seconds apart,2/22/2002,9.977844,-84.829421
22129,2008-12-24 16:48:00,kajaani,,,fireball,120,2 minutes,Orange colored very bright flying object in the sky low altitude&#44 pulling up.,01/10/2009,64.227056,27.728601
22159,2010-12-24 22:20:00,pretoria (south africa),,,sphere,180,3 minutes,4 burning objects moving in irregular fashion before fading away above Pretoria&#44 South Africa,01/05/2011,-25.746111,28.188056
22209,2012-12-24 18:45:00,curepe (trinidad/tobago),,,fireball,300,5 minutes,Fireball hovering over Curepe&#44 Trinidad West Indies.,02/04/2013,10.639484,-61.409989
22241,2013-12-24 17:30:00,port kennedy,,,light,180,~3 minutes,Bright light over Port Kennedy Western Australia that rose up and then travelled in a straight line above our heads and into the distan,01/10/2014,-32.366464,115.755576
22284,2013-12-24 23:15:00,stellenbosch (south africa),,,light,300,5 minutes,Orange-red light in sky&#44 Stellenbosch&#44 South Africa.,01/10/2014,-33.932104,18.860152
22323,2000-12-25 01:00:00,el baul (venezuela),,,changing,2,a few secs,Object entered atmosphere and disappeared,5/24/2005,8.96096,-68.301144
22370,2004-12-25 01:25:00,hardwar (uttarakhand) (india),,,circle,120,2 minutes,Yellow hollow ring in the sky.,04/11/2014,29.945691,78.164248
22383,2005-12-25 20:00:00,taparko (burkina faso),,,triangle,60,01:00,Strange lights formation in triangular shape passing over 100 witness&#39s,2/14/2006,0,0.0
22396,2006-12-25 23:00:00,image in movie (pirates of the caribbean&#44 black pearl),,,light,6,6 seconds,Okay here&#39s a different sighting that many probably have seen&#44 I can&#39t quite say what it was&#44 I have seen quite a few sightings in my l,02/01/2007,0,0.0
22399,2007-12-25 16:10:00,cape town (south africa),,,disk,0,photo,Strange object in the sky.,03/04/2008,-33.924868,18.424055
22407,2008-12-25 04:45:00,bury st edmunds,,,other,300,5mins,three&#44 craft&#44 silent&#44,01/10/2009,52.244384,0.716356
22412,2008-12-25 12:15:00,uk/england,,,other,20,20 seconds,A flat black 3-5 sided ufo near Winter Hill,3/19/2009,52.355518,-1.17432
22413,2008-12-25 17:55:00,wednesbury,,,sphere,600,10mins,2 round orange coloured spheres dancing in sky&#44then 1 stopped and the other appeared to move arounf it.lost sight when cloud came over.,01/10/2009,52.552888,-2.02208
22446,2010-12-25 22:14:00,vanderbijlpark (south africa),,,triangle,10,10 seconds,Brownish Colour with 2 lights,01/05/2011,-26.699167,27.835556
22502,2012-12-25 20:30:00,richards bay (south africa),,,sphere,120,2 minutes,Bright orange object that turned pitch black moving at a constant speed in a Northern direction (South Africa).,02/04/2013,-28.780728,32.038286
22628,2004-12-26 22:30:00,thong nai pan (koh phan gan)(thailand),,,light,2700,45mins,Whilst holidaying on the island of Koh Phangan Thailand 10 of us witnessed an extra large red pulsating star like object in the sky(we,1/27/2005,16.414106,99.771069
22650,2007-12-26 20:00:00,maceio (brasil),,,oval,3,3 seconds,Flame red oval object moving fast on Maceio 26 Dec 2007 20:00 PM about,1/21/2008,-9.649849,-35.708949
22734,1983-12-27 20:30:00,derry (republic of ireland),,,formation,180,2-3mins,As a group we all stood under the tree under the small box at the country lane off ballymagroarty we walked through the gate now a larg,10/28/2002,0,0.0
22757,2002-12-27 02:00:00,johannesburg (south africa),,,light,10800,3 hours,BRIGHT WHITE LIGHT IN THE SHAPE OF CIRCLE HOVERING OVER MINE DUMP INTENCITY OF LIGHT CHANGES FROM BRIGHT TO DIM THEN VANISHES .,03/04/2003,0,0.0
22768,2003-12-27 16:00:00,meppen/emmen (between) (germany/holland),,,fireball,900,15 minutes,On the border of Germany and Holland we saw a fireball changing into a fire egg and chaging again into the tail of a star.This is t,1/17/2004,52.785804,6.897585
22822,2009-12-27 02:00:00,shannon (approx. 500 km wnw of) (ireland),,,triangle,600,approx. 10 minutes,Triangular blinking lights over the North Atlantic Ocean (seen from a commercial aircraft),2/14/2010,0,0.0
22835,2011-12-27 00:00:00,in distance from earth,,,triangle,259200,3 days,NASA has photos of an object in space moving towards Earth and shaped like a triangle.  They pass this off as a reflection of Venus on,1/24/2012,0,0.0
22845,2012-12-27 00:00:00,homagama (sri lanka),,,cone,0,20,27 December 2012 around 5.10 in the morning i saw a bright light and i had a flash light in my hand so i flashed it to wise&#44 three time,02/04/2013,6.843276,80.003183
22896,1995-12-28 17:30:00,trinidad,,,,900,15 min.,Seismic ship captain reports damage to towed equip. by huge underwater obj..  Obj. rises from ocean&#44 seen on radar for 10 min..,11/02/1999,0,0.0
22962,2005-12-28 20:00:00,cancun (cancun),,,other,5,half hour,multicolored &quot;Star&quot; changing formation.  ((NUFORC Note:  Possible sighting of Sirius??  PD)),03/04/2008,21.161908,-86.851528
22968,2006-12-28 03:30:00,punta cana (dominican republic),,,circle,600,5-10 mins,I was staying at a resort in Punta cana&#44 Dominican Republic over the xmas and new years holidays last year (&#8217;06).  What I saw was the m,4/27/2007,18.533333,-68.366667
22972,2006-12-28 09:34:00,kuwait,,,disk,0,morning,When I was going to the university in the way I&#39ve seen a Disk shaped object flying in the sky and it was very far&#44 but it was shining,02/01/2007,29.31166,47.481766
23008,2010-12-28 00:30:00,kadena ab (okinawa) (japan),,,light,4,4 seconds,Bright red large light spotted moving very fast&#44 Okinawa&#44 Japan.  ((NUFORC Note:  Report from aircraft mechanic.  PD)),1/31/2011,0,0.0
23009,2010-12-28 11:58:00,kowloon (hong kong) (china),,,oval,120,1-2 minutes,Hong Kong 2nd January&#44 2010. On the day of 28th December 2010&#44 at Hong Kong time 11.58-12.00hrs.I have seen an Ufo moving in th,01/05/2011,22.318567,114.179606
23090,1996-12-29 19:00:00,venezuela,,,disk,45,30-45 seconds,object with bright lights&#44 which caught fire&#44broke into three pieces and fell into heavy jungle,10/31/2008,0,0.0
23098,1999-12-29 21:45:00,hong kong (lamma island; prc),,,other,15,15 seconds,It was spotted quickly&#44 not looking for it&#44 we all saw the same.  It had two balls of light&#44 diagonal shaft of light attaching them.,01/07/2000,22.396428,114.109497
23135,2003-12-29 19:04:00,uk/england,,,other,163,2 minutes 43 seconds,i was telling my friend to look but he could not hear me &#44it would not let me look away,1/17/2004,52.355518,-1.17432
23203,2010-12-29 12:16:00,madeira (pretoria) (south africa),,,oval,0,23,Sighting of a unidentified craft hovering over Madeira Harbor&#44 Photo&#39s taken from live webcam.  ((NUFORC Note:  Water on lens.  PD)),01/05/2011,0,0.0
23232,2012-12-29 17:05:00,in-flight sighting,,,rectangle,120,2 minutes,Actual Video of UFO sighting from Sprit Airlines.,02/04/2013,0,0.0
23257,2013-12-29 19:20:00,yateley,,,fireball,10,10 seconds,Red ball.,01/10/2014,51.341158,-0.825203
23258,2013-12-29 19:30:00,murfreesboro,,,fireball,120,2 minutes,I was driving and I noticed 5 lights on the sky just below the cloud line.,01/10/2014,0,0.0
23295,2002-12-30 16:00:00,(republic of ireland),,,light,1200,10-20minutes,2 red lights hovering beside the car for approximately 10 kilometers. Bright red light with a white flash coming out of it like lightin,03/04/2003,0,0.0
23303,2003-12-30 01:00:00,western queensland (qld&#44 australia),,,light,900,15 mins,Two bright lights hovering one had a flashing red light,1/17/2004,-23.568135,140.679376
23338,2007-12-30 18:47:00,failsworth manchester,,,fireball,600,10 minutes,floating fireball,2/14/2008,53.508131,-2.164444
23345,2008-12-30 00:08:00,rambaud (st. martin),,,triangle,90,90 seconds,V shaped wavering bright orange sighting over French St. Martin.,01/10/2009,44.509309,6.46814
23380,2011-12-30 22:30:00,durban (south africa),,,light,10,10 seconds,My wife&#44 daughter and I were sitting outside on the deck observing the stars when suddenly an intesly bright white flash lit up the are,02/10/2012,-29.85868,31.02184
23390,2012-12-30 19:50:00,suwon (30 miles south of) (south korea),,,fireball,600,8-10 minutes,2 round balls of fire hovering over the southern part of South Korea-4 witnesses that I know of.,02/04/2013,37.263573,127.028601
23403,2013-12-30 18:00:00,orotin (costa rica),,,light,180,3 minutes,I&#39ve been watching stars for over 40 years now. Seen ISS and satelites  many times. This was a very bright light moving east/west in th,01/10/2014,0,0.0
23443,1998-12-31 11:30:00,bejuma&#44 edo. carabobo&#44 caracas (venezuela),,,light,240,4 minutes,we saw a bright yellow-blue-red light in the sky very high and a very high speed,2/16/1999,0,0.0
23446,1998-12-31 22:50:00,nassau (great harbour key&#44 30nm nw of nassau) (bahamas),,,fireball,30,30 seconds,Glowing ball flying parrallel to the earth at about 10&#44000 feet,5/24/1999,0,0.0
23449,1998-12-31 23:41:00,santo domingo (dominican republic),,,egg,120,2 minutes,Object was yellow ligthted egg moving north to south at a very low altitude and amazingly fast for a plane&#44no noise of engine. New year,5/24/1999,0,0.0
23450,1998-12-31 23:49:00,aruba,,,circle,8,8 sec,I saw a smal circel form coming from the north it stop and then rapidity moving to the south.It was about 45 degrees high looking at th,7/13/2005,12.52111,-69.968338
23451,1998-12-31 23:50:00,macuto (venezuela),,,,5,5 sec.,objects moving at high velocity over the sea&#44 north to south coming from the caribbean sea.,09/09/2003,10.605,-66.894444
23467,1999-12-31 23:55:00,rome (vatican square&#44vatican city&#44 on cnn live telecast),,,disk,15,10 to 15 seconds(on cnn),I noticed a disc with a dome on bottom.Color was white to light gray.&#9;,1/22/2000,0,0.0
23470,2000-12-31 01:05:00,lake macquarie (nsw&#44 australia),,,flash,240,4 minutes,bright red glow&#44 that appeared outside window&#44 on the horizon.  The light then intensified&#44 then disappeared.,01/03/2001,-33.093373,151.588982
23477,2000-12-31 21:40:00,santo domingo (dominican republic),,,unknown,10800,3 hours,Globular whitish dim semitransparent form with bright orange yellowish light on its periphery.,01/03/2001,0,0.0
23528,2004-12-31 23:00:00,centurion (south africa),,,sphere,2700,45min,sphere balls in sky,01/11/2005,-25.860278,28.189444
23579,2008-12-31 06:00:00,poyntzpass (northern ireland),,,light,900,10-15 minutes,Two orangy/yellow lights seen hovered and moving off really quickly at incredible speed. 500 Lights On Object0: Yes,01/10/2009,54.29368,-6.37523
23684,2011-12-31 23:00:00,broken hill,,,oval,60,60 seconds,Bright orange light moving horizontally across the sky.,01/12/2012,-31.955858,141.465136
23713,2012-12-31 19:45:00,sundra/delmas (south africa),,,other,300,unknown mabe 5 min,A red starlike craft.,02/04/2013,-26.18694,28.54667
23753,2012-12-31 23:00:00,san diego,,,light,600,10 minutes,Bright orange lights in a Flying V pattern were sighted in the sky at night.,02/04/2013,0,0.0
23853,2013-12-31 23:10:00,minsk (half hour away) (belarus),,,formation,900,15 minutes,3 observers---Approx. 15 white lighted craft moving at blinding speeds one half hour outside of Minsk&#44 Belarus.,01/10/2014,53.9,27.566667
23906,2000-01-23 01:18:00,england (latitude 55 north) (uk/england),,,,1800,30 minutes +,two ufos heading due east&#44 latitude 55 north on sunday gmt 1:18 on jan. 23&#44 2000  reported by ground observers and possibly radar; latt,2/16/2000,0,0.0
23972,2003-01-23 23:22:00,uk/england,,,changing,0,,It was bright with a red haze and bright lines waving around it.,3/21/2003,52.355518,-1.17432
23981,2004-01-23 10:00:00,midwest u. s. (in-flight),,,cigar,300,3-5 minutes,strangest damn things I ever saw.,6/18/2004,43.41136,-106.280024
24066,2008-12-03 17:05:00,yalta (crimea) (ukraine),,,disk,2700,45 min,orbed ufo with bright light luminescence in &amp; around it,01/10/2009,44.495205,34.166301
24103,2009-01-23 20:50:00,raynham (northeast of),,,,2,1-2 sec.,Round white greenish hue object. Northeast sky in Raynham MA 8:50 pm 1/23/09.  ((NUFORC Note:  Possible meteor??  PD)),3/19/2009,0,0.0
24113,2010-01-23 00:00:00,cruz bay (u. s. virgin islands),,,light,300,5 minutes,Four bright amber coloured lights spotted flying straight upward and into space over the Caribbean Sea in the Virgin Islands.,2/14/2010,18.331343,-64.79375
24154,2012-12-03 02:00:00,johannesburg (south africa),,,,120,2 minutes,A loud jet type noise&#44 hovered for a couple of minutes,12/20/2012,0,0.0
24214,2014-01-23 11:00:00,columbia,,,circle,0,,Bright blue lights on top of red dots on the sky.,1/30/2014,0,0.0
24282,2001-12-04 22:34:00,colombo (sri lanka),,,diamond,60,1 minutes,Srilanka UFO,3/19/2002,6.927079,79.861243
24312,2003-01-24 19:00:00,san jose (costa rica),,,disk,30,30seconds,ufo in costa rica,03/04/2003,0,0.0
24554,2014-01-24 02:00:00,mexico,,,sphere,600,7-10 minutes,On 1/24/14&#44 early am&#44 10 large orange orbs moved east  towards the Caribbean Sea over the Yucatan.,1/30/2014,0,0.0
24555,2014-01-24 02:19:00,healdsburg,,,circle,1800,30 minutes,There are 10 plus crafts flashing lights RGB colors.  Zig zag fast motions dropping slowly.  It looks like flashing snowflakes.,1/24/2014,0,0.0
24604,1997-12-05 02:32:00,guarenas&#44 miranda (venezuela),,,fireball,2,seconds,I was just listening music from the sat reciever when I looked to the  window facing S.W. when I saw the fireball coming down diagonaly,08/10/1999,10.466263,-66.616882
24712,2004-12-05 22:20:00,bishkek (kyrgyzistan),,,unknown,7200,2 hours,A bright shining object  emitted multicolored beams of light,12/14/2004,42.874722,74.612222
24721,2005-01-25 10:00:00,belize (during cruise),,,unknown,3600,1 hour,on jan 25 2005 about ten at night we noticed bright lights that were very strange.  ((NUFORC Note:  Possible sighting of Sirius.  PD)),02/08/2005,17.189877,-88.49765
24753,2006-01-25 21:15:00,uk/england,,,changing,7200,2 hours +,colour changing shape changing flashing light in the sky over warwickshire in England,2/14/2006,52.355518,-1.17432
24792,2008-01-25 10:30:00,iquique,,,circle,3600,60 mins,Round object&#44 changing colours from red&#44 blue to white&#44 with electric currents running through&#44 releasing something into the air&#44 blue,2/14/2008,-20.2167,-70.142223
24811,2009-12-05 11:30:00,azua (dominican republic),,,disk,30,30 sec,UFO appears for less than a minute over the Dominican Republic sky,5/29/2011,18.46,-70.74
24830,2010-01-25 11:30:00,begues (catalonia&#44 spain),,,disk,120,2min,((HOAX??))  A total circle no lights &#44 only a litte ligth down of  blue,4/13/2010,41.330975,1.922643
24844,2011-01-25 00:00:00,colombia,,,light,0,unknown,Bright light over lake with dead fish found later,1/31/2011,4.570868,-74.297333
24958,2014-01-25 23:00:00,barbados,,,circle,60,1 minute,6 bright circular lights in the sky&#44 traveling in a &quot;V&quot; shape / Triangular Shape at a fast Speed.  All the Lights were evenly.,1/30/2014,13.193887,-59.543198
24962,1972-12-06 00:00:00,ireland (not sure which town),,,light,300,5mins approx,1 light comes down from space&#44 two other smaller lights attach themselves and then all go up into space.,9/15/2005,0,0.0
24964,1984-01-26 18:09:00,abu dhabi (united arab emirates),,,disk,0,,Object captured by camera over Abu Dhabi,4/27/2007,24.466667,54.366667
25048,2003-12-06 01:00:00,australia,,,other,1800,30 min,one big blob shaped object appeared which appeared out of the sky then broke into lots of 16 cigar shaped thigymagigies&#44 an we were on,06/04/2004,-25.274398,133.775136
25053,2003-01-26 19:07:00,dun laoghaire (county dublin (republic of ireland),,,fireball,30,30 seconds,It appeared to be red in colour and emmited 2 fireballs from the back that dropped from the sky&#44 but disintegrated.,3/21/2003,53.29279,-6.141937
25305,2000-12-07 08:50:00,in-flight (over the north sea&#44 between england &amp; denmark),,,cylinder,300,5 minutes,Bright lights suspended above teh clouds,12/20/2000,38.584329,-108.073096
25377,2004-01-27 22:00:00,portlaoise (republic of ireland),,,triangle,60,1 minute,noise less in shape of triangle with three red lights.,1/31/2004,53.032812,-7.298793
25378,2004-01-27 22:30:00,trichardt (south africa),,,circle,0,farm,i saw a U.F.O,1/31/2004,-26.484479,29.223361
25394,2006-01-27 01:00:00,armagh (republic of ireland),,,unknown,1200,20 minutes,the lights in our town were too bright for anyone to see stars&#44 and there was no clouds,2/14/2006,0,0.0
25468,2009-01-27 18:00:00,caracas (venezuela),,,formation,60,1 min,3 Ufos over the city of Caracas Tonight around 7:00 pm 3 objects passed over the city of Caracas in 3 differents directions in less tha,3/19/2009,10.5,-66.916667
25522,2012-01-27 07:00:00,ashland,,,fireball,15,15 seconds,Falling from west to east with a huge trail of particles.  ((NUFORC Note:  Possible meteor??  PD)),02/03/2012,0,0.0
25526,2012-01-27 16:50:00,paris (40 km from) (france),,,cylinder,20,20 seconds,Silver cylinder&#44 reflecting sun and with a strong silver flash before to disapear.,9/24/2012,0,0.0
25588,2013-12-07 22:50:00,costa rica (riu palace hotel),,,circle,600,10 minutes,Round orange-red lite in sky in costa rica near riu palace hotel,12/23/2013,9.748917,-83.753428
25605,1975-12-08 20:00:00,las palmas (grand canary island),,,light,900,15 minutes,the object was full of light,2/14/2006,0,0.0
25713,2004-01-28 22:00:00,capetown (cpt) (south africa),,,disk,180,3 minutes,flying disc streaking across the sky (in outerspace) in South Africa at almost the speed of light.,02/12/2004,-33.924868,18.424055
25734,2005-01-28 19:30:00,durban (south africa),,,light,90,90 secs,Lights in formation flying over Mount Edgecombe South Africa,02/08/2005,-29.85868,31.02184
25741,2005-01-28 21:04:00,johannesburg (south africa),,,formation,600,10 minutes,5 objects in a straight line &#44but very bright in color,02/08/2005,0,0.0
25917,2014-01-28 00:00:00,oak creek,,,oval,12600,3.5 hours,By lake michigan and power plant they come and are In same place almost everynight for as ling as I remember no not stars or satilites,1/30/2014,0,0.0
25948,1989-12-09 21:00:00,cork (republic of ireland),,,changing,1200,20 mins,bright diamond band on the lower rim&#44coloured . blue mist,06/06/2000,51.896892,-8.486316
25998,2001-12-09 21:30:00,wexford (republic of ireland),,,circle,30,30 sec,??,01/11/2002,0,0.0
26005,2002-12-09 22:00:00,johannesburg (south africa),,,other,4,4 sec,I have seen a UFO in a movie (video). This will sound strange but I really did.The movie is called Made Man with Timothy Dalton. In,12/23/2002,0,0.0
26115,2008-01-29 20:00:00,australia,,,other,20,20 seconds,Big black/gray object seen at the airport of Brisbane&#44 Australian,8/27/2009,-25.274398,133.775136
26177,2011-12-09 21:00:00,trinidad/tobago,,,circle,1500,25 minutes,The objects moved with distinct intelligence&#44 hovering when it wanted and changing directions as desired.,4/18/2012,10.691803,-61.222503
26311,2007-01-30 23:00:00,st. thomas (near; on cruise ship),,,oval,120,several hours,Many clusters lof lights over the Caribbean,2/24/2007,0,0.0
26342,2011-01-30 19:25:00,forth estuary (edinburgh) (uk/scotland),,,sphere,60,1 min,Pink Coloured Sphere,02/08/2011,56.166667,-2.75
26343,2011-01-30 21:30:00,umkomaas (south africa),,,light,300,5min,BRIGHT LIGHTS AT HIGH SPEEDS,1/31/2011,-30.200678,30.78384
26589,2003-01-03 02:14:00,johannesburg (south africa),,,light,60,1 minute,Extreme bright light that moved very slow and then dissappeared,03/04/2003,0,0.0
26620,2006-01-03 18:00:00,seoul (south korea),,,flash,2,2 seconds,Green arrowhead shaped light traveling at high speed in upper atmosphere,02/01/2007,37.566535,126.977969
26731,2013-01-03 04:30:00,dhoon glen (isle of man) (uk/england),,,other,180,3 minutes,Differing mysterious objects in same area&#44 repeated sightings.,07/03/2013,54.25,-4.366667
26754,2014-01-03 20:38:00,debrecen,,,oval,180,2-3 minutes,Pulsing shiny orange orb for about 2-3 minutes.,01/10/2014,47.531605,21.627312
26760,1976-01-04 05:30:00,simonstown (south africa),,,cigar,180,3 minutes,unlike anything  i had ever seen,08/05/2001,-34.193765,18.435665
26797,2003-01-04 22:15:00,espoo (kilo) (finland)),,,fireball,120,about 2 minutes,There were flames in the sky&#44 like an aeroplane in fire or candle.,03/04/2003,60.205491,24.6559
26807,2004-01-04 19:30:00,queensland (qld&#44 australia),,,light,36000,10hrs,have it on tape,05/04/2004,-20.917574,142.702796
26939,2014-01-04 20:00:00,guatamala city (guatamala),,,light,1800,30 minutes,Some people saw a blue light falling and crashing on the ground&#44 later on three small lights floated over the ground.,01/10/2014,14.613333,-90.535278
27058,2008-01-05 03:27:00,compton,,,diamond,3600,1 hour,12 diamond shaped black craft in the sky.,2/14/2008,0,0.0
27086,2010-01-05 19:15:00,uk/scotland,,,diamond,120,2 minutes,EXTREMELY BRIGHT ILLUMINATED &amp; DIAMOND SHAPED AND RIGHT ABOVE MY CAR&#33,2/14/2010,56.490671,-4.202646
27096,2012-01-05 05:53:00,mexico (offshore waters),,,light,210,3 min 30 sec,1 White Light that Looked Like Moving Star. 2nd White Light Same but disappeared a few seconds later.,01/12/2012,0,0.0
27112,2013-01-05 18:10:00,adachi-ku (tokyo) (japan),,,chevron,5,5 seconds,Two crescent shaped lightless soundless craft&#44 traveling at supersonic speeds over Tokyo.,02/04/2013,35.775664,139.804479
27135,1978-01-06 19:00:00,shantineketan&#44 (west bengal) (india),,,light,20,15/20 seconds,A brilliant light moved super fast in the sky and zig zagged away at unearthly speed.,8/16/2002,0,0.0
27137,1989-01-06 22:00:00,b&uuml;nde (birdwood barracks) (germany),,,circle,0,unclear,Two red lights circling around a solid dark mass hanging sationary in the night sky.,4/28/2001,52.198222,8.583233
27288,2013-01-06 18:35:00,grand cayman island,,,circle,60,1 minutes,Object came across 7 mile beach from ocean. Stopped&#44 then took off into space at high rate of speed. Event reocurred a few mins later i,10/23/2013,19.32217,-81.240869
27391,2003-01-07 22:54:00,johannesburg (south africa),,,light,3600,1 hour,huge white ball of light moving westerly to easterly in seconds over great distance while moving erratically up down sideways changing,03/04/2003,0,0.0
27433,2007-01-07 19:40:00,singapore,,,sphere,10,10 seconds,A bright light across the sky took many Singaporeans by surprise on Sunday evening.,02/01/2007,1.352083,103.819836
27446,2009-01-07 00:45:00,philadelphia,,,,0,,It was a strange light that was followed by a mysterious noise.,01/10/2009,0,0.0
27450,2009-01-07 14:00:00,yanbu (saudi arabia),,,egg,300,5 min,UFO IN SAUDI ARABIA YANBU CITY JAN2009,4/14/2009,24.083333,38.0
27473,2011-01-07 21:00:00,cape town,,,fireball,900,15 min,High flying orbs Cape Town South Africa red yellow,01/12/2012,-33.924868,18.424055
27483,2012-01-07 18:00:00,alejuela (costa rica),,,other,900,15 minutes,Multiple star shape objects moving over volcano range&#44 groups of 2 at time &#44 5 times within 15 minutes,1/24/2012,10.391583,-84.438272
27507,2014-01-07 12:15:00,busan (south korea),,,disk,120,~1-2 minutes,A saucer spotted by an accidental photo.,01/10/2014,35.179554,129.075642
27625,2008-01-08 14:00:00,italy,,,triangle,20,10-20 seconds,Italian UFO,1/21/2008,0,0.0
27776,2005-01-09 18:45:00,san jose villanueva (el salvador),,,circle,1800,30 min,a lot of ufo&quot;s folowing each other,01/11/2005,13.559959,-89.260975
27806,2008-01-09 22:00:00,mexico (over pacific ocean),,,light,20,20 seconds,SHOOTING STAR TURNS OUT TO BE SOMETHING ELSE,10/31/2008,0,0.0
27817,2009-01-09 19:40:00,dar es salaam (tanzania),,,fireball,4,3-4 secs,As usual I was standing in my balcony on 4th floor from where I see huge area of sky till Indian ocean and suddenly my eyes caught atte,01/10/2009,-6.8,39.283333
27855,2012-01-09 22:30:00,erskineville (sydney) (australia),,,formation,1200,20 minutes,UFO sighting: Erskineville rail station Sydney Australia,07/04/2012,-33.899808,151.184523
27960,2005-02-10 22:35:00,uk/england,,,light,600,10mins,glowing orb of light low down in the sky moving very oddly emmiting no noise what so ever&#33&#33&#33,4/16/2005,52.355518,-1.17432
27965,2006-02-10 05:00:00,turkey (in-flight sighting),,,circle,120,2 minutes,i am a co\pilot and we were flying over turkey at flight level 370 and the captain drawed our attention for an object was flying near t,2/14/2006,0,0.0
28024,2012-02-10 05:37:00,walferdange (luxembourge),,,triangle,60,1 minute,((HOAX??))  Triangle&#44 UFO (my opinion a scout-ship) very fast&#44absolut clear view&#44 3 diff. lights no noise no sound.,02/10/2012,49.662979,6.13324
28072,2000-02-11 17:10:00,sotira,,,other,240,4 minutes,A bell shape purple color object passed by me,8/20/2001,35.026667,33.950278
28092,2002-02-11 22:00:00,st. lucia,,,,0,,Hello. My boyfriend&#44((name deleted))&#44 and I were in St. Lucia a few weeks ago and we saw a few different UFO&#39s.,3/19/2002,13.909444,-60.978893
28188,2011-02-11 20:00:00,dubai (u.a.r.),,,triangle,180,3 minutes,bright firey object in night sky over Dubai&#44 UAE that moved irradically,10/10/2011,25.047664,55.181741
28232,1971-02-01 20:00:00,pacific ocean,,,light,60,one minute,I was in the navy in 1971 on a recovery mission aboard the uss new orleans LPH 11 we recovered apollo 14 the apollo space craft was abo,12/16/2005,-8.783195,-124.508523
28255,1996-02-01 03:00:00,cordillera de los andes (coya rancagua) (chile),,,triangle,0,10 segundos,Estabamos con un amigo en el interior de nuestra carpa&#44 contando chistes y hablando de cualquier cosa&#44 cuando de repente una gran luz a,9/19/2002,-21.183436,-67.629277
28283,2000-02-01 23:00:00,paraparaumu,,,circle,600,10 minutes,A steady white light approaches from the north&#44 dances erratically overhead then fades and disappears,12/02/2000,-40.914234,175.00838
28406,2012-02-01 12:00:00,hamyang (south korea),,,disk,30,30 seconds,Korean fighter jet flanked by disc shaped object,07/04/2012,35.520461,127.725176
28422,2012-02-01 20:30:00,luxembourg (city) (luxembourg),,,triangle,60,1 minute,Low altitude Triangle shaped UFO over Luxembourg City &#44 3 white light 1 red light in center.,3/13/2012,49.815273,6.129583
28483,1999-02-12 01:00:00,iceland (near&#44 over north atlantic ocean),,,sphere,180,2-3 minutes,Flying home from England&#44 I looked out the window to see the sights.  We were flying well above the cloud cover.  It was a glorious&#44 su,04/02/1999,64.963051,-19.020835
28536,2004-02-12 21:00:00,cancun (yucatan&#44 mexico),,,light,1800,approx 30 minutes,Star-like objects turning and moving at different directions and sometimes at incredible speed.,03/02/2004,21.161908,-86.851528
28579,2008-02-12 21:25:00,dalkieth (edinborough (uk/scotland),,,other,35,30 -35 seconds,asteroid from bedroom window  through a skywatcher 4 in scope,12/12/2009,55.893118,-3.066606
28694,2004-02-13 03:00:00,mumbai,,,other,960,1h 15m,for Info. &amp; Images   http://vegaclub.com/Unknown.htm  ((NUFORC Note:  We recommend a visit to the URL indicated here&#33  PD)),2/22/2005,19.075984,72.877656
28723,2007-02-13 08:49:00,dungarvan (republic of ireland),,,disk,180,3 minutes,Long metallic saucer flies accross sky&#44 stops suddenly&#44 it stationary for a moment then disappears instantly.,2/24/2007,52.093676,-7.620363
28768,2010-02-13 23:05:00,sharjah (u.a.e.),,,fireball,180,3 minutes,Fire ball like sighting in Sharjah&#44 UAE,2/14/2010,25.357522,55.391865
28783,2012-02-13 20:15:00,rosetta (south africa),,,circle,900,15 minutes,Orb-like objects travelling across the sky followed by flashes of light.,3/13/2012,31.4,30.416667
28825,1992-02-14 21:00:00,panajachel (near) (guatamala),,,unknown,900,15 minutes,4 of ORION&#39S stars obscured on a clear night at Lake Atitlan,5/24/2005,0,0.0
28826,1992-02-14 22:30:00,panajachel (near) (guatamala),,,changing,420,about 7 minutes,Beam of light follows me walking&#44 moves high into trees on cliffside&#44 seems to swivel as it fades out.,5/24/2005,0,0.0
28828,1995-02-14 19:45:00,klang (selangor) (malaysia),,,fireball,480,8mins,The sun was setting&#44 was in car with my mother heading home from grocery store.saw floating fireballs like in the sky. tought they,02/12/2004,3.043061,101.440657
28885,2004-02-14 04:00:00,caribbean (in a cruise) (mexico),,,light,900,15 mins,they werent planes they were UFOS,03/02/2004,21.469114,-78.656894
28952,2009-02-14 11:10:00,lisburn (northern ireland),,,oval,60,1 minute,Mach 3+ Oval&#44 Lisburn&#44 N. Ireland.,3/19/2009,54.50972,-6.0374
